bathrooms,bedrooms,city,daysOnZillow,homeStatus,homeType,imgSrc,latitude,listing_sub_type,livingArea,longitude,price,rentZestimate,state,streetAddress,zestimate,zipcode,zpid,unit
2,3,San Francisco,-1,FOR_SALE,CONDO,https://photos.zillowstatic.com/fp/bfaec5a3425a424aba073c28f0ab73cf-p_e.jpg,37.774014,"{'is_FSBA': True, 'is_openHouse': True}",1725,-122.42502,1455000,6425,CA,254 Page St,1588900,94102,53153216,null
2,2,San Francisco,-1,FOR_SALE,CONDO,https://photos.zillowstatic.com/fp/61a7de4f9861e0a494e71d457aba240e-p_e.jpg,37.778,"{'is_FSBA': True, 'is_openHouse': True}",1060,-122.42353,1295000,null,CA,400 Grove St UNIT 401,null,94102,241585056,Unit 401
4,3,San Francisco,-1,FOR_SALE,MULTI_FAMILY,https://photos.zillowstatic.com/fp/23c34ddf9b1eb39046059729515a8ddc-p_e.jpg,37.77623,"{'is_FSBA': True, 'is_openHouse': True}",2420,-122.4234,1389000,null,CA,327-329 Linden St,null,94102,2056440031,null
2,2,San Francisco,-1,FOR_SALE,CONDO,https://photos.zillowstatic.com/fp/3974b509406c7226da567ac48eb58caf-p_e.jpg,37.775753,"{'is_FSBA': True, 'is_openHouse': True}",1215,-122.42639,1215000,null,CA,511 Linden St #B,null,94102,15078469,# B
1,1,San Francisco,-1,FOR_SALE,CONDO,https://photos.zillowstatic.com/fp/e7a7d36d915e4f2110245b7414093384-p_e.jpg,37.7777,"{'is_newHome': True, 'is_openHouse': True}",670,-122.422005,899000,null,CA,311 Grove St #2,null,94102,2056450385,# 2
2,2,San Francisco,-1,FOR_SALE,CONDO,https://photos.zillowstatic.com/fp/e7a7d36d915e4f2110245b7414093384-p_e.jpg,37.7777,"{'is_newHome': True, 'is_openHouse': True}",0,-122.422005,1249000,null,CA,311 Grove St #7,null,94102,2056450386,# 7
2,2,San Francisco,-1,FOR_SALE,CONDO,https://photos.zillowstatic.com/fp/0ef5750cf2f41c84dafee5aa00240d86-p_e.jpg,null,"{'is_newHome': True, 'is_openHouse': True}",950,null,1399000,null,CA,311 Grove St #4,null,94102,2060752756,# 4
2,2,San Francisco,11,FOR_SALE,CONDO,https://photos.zillowstatic.com/fp/7e307dde892b2b24055fa1cff4c26838-p_e.jpg,37.78138,{'is_FSBA': True},1270,-122.42314,1198000,4900,CA,368 Elm St APT 305,1249600,94102,79845813,Apt 305
1,1,San Francisco,20,FOR_SALE,CONDO,https://photos.zillowstatic.com/fp/53126157e6b48c1c0e8d4bf65a520b6f-p_e.jpg,37.777035,{'is_FSBA': True},711,-122.42388,898000,3857,CA,450 Hayes St UNIT 3L,914000,94102,325787154,Unit 3L
0,null,San Francisco,20,FOR_SALE,MULTI_FAMILY,https://photos.zillowstatic.com/fp/63b894d2d85de6afed50860c7df8106a-p_e.jpg,null,{'is_FSBA': True},7851,null,3750000,2889,CA,549 Fell St,3943000,94102,2108813525,null
1,2,San Francisco,20,FOR_SALE,CONDO,https://photos.zillowstatic.com/fp/57f0a876f602250483abce056e59fe10-p_e.jpg,37.77443,{'is_FSBA': True},812,-122.42111,927000,null,CA,11 Franklin St #301,null,94102,241585889,# 301
1,0,San Francisco,20,FOR_SALE,CONDO,https://photos.zillowstatic.com/fp/a983ff66a37d64599bee37f2db14ea06-p_e.jpg,37.7807,{'is_FSBA': True},254,-122.41327,349000,2361,CA,83 McAllister St APT 405,360700,94102,89240565,Apt 405
1,0,San Francisco,-1,FOR_SALE,CONDO,https://photos.zillowstatic.com/fp/492b8effed872ad6853f64d283c83492-p_e.jpg,37.78168,"{'is_FSBA': True, 'is_openHouse': True}",706,-122.42091,463000,3362,CA,601 Van Ness Ave APT 928,460800,94102,15077894,Apt 928
1,1,San Francisco,25,FOR_SALE,CONDO,https://photos.zillowstatic.com/fp/1b00e9606fb1c3ff1d500558b8572d4f-p_e.jpg,37.770073,{'is_FSBA': True},605,-122.42621,735000,3499,CA,8 Buchanan St UNIT 502,765100,94102,124398064,Unit 502
1,1,San Francisco,25,FOR_SALE,CONDO,https://photos.zillowstatic.com/fp/ef623b344d857f4e68e64c82d1ad5cf3-p_e.jpg,37.777035,{'is_newHome': True},0,-122.42388,700000,3527,CA,450 Hayes St #2C,714300,94102,249664411,# 2C
1,3,San Francisco,25,FOR_SALE,CONDO,https://photos.zillowstatic.com/fp/edcebf5c48d2c9f8bca211ef1a7dd0ea-p_e.jpg,37.771645,{'is_FSBA': True},1897,-122.42828,1495000,5175,CA,282 Waller St,1493300,94102,123598496,null
1,1,San Francisco,26,FOR_SALE,CONDO,https://photos.zillowstatic.com/fp/c1738adf3c8106870e8ed6a0134b573d-p_e.jpg,37.778168,{'is_newHome': True},716,-122.42575,799000,3910,CA,555 Fulton St UNIT 326,794300,94102,325648190,Unit 326
1,0,San Francisco,-1,FOR_SALE,CONDO,https://photos.zillowstatic.com/fp/bc3964a54fee7ee6a1975fc3f8a6e8d4-p_e.jpg,37.78238,{'is_FSBA': True},395,-122.420166,375000,2155,CA,750 Van Ness Ave UNIT 404,417500,94102,82785468,Unit 404
0,0,San Francisco,36,FOR_SALE,SINGLE_FAMILY,https://photos.zillowstatic.com/fp/86df4762ec820c8e6725c08f93cca41c-p_e.jpg,37.774036,{'is_FSBA': True},0,-122.426636,1290000,2054,CA,171-173 Lily St,1380900,94102,2057178598,null
0,null,San Francisco,40,FOR_SALE,MULTI_FAMILY,https://photos.zillowstatic.com/fp/010ad7addbeee5e6e1c77cc03270a911-p_e.jpg,37.784473,{'is_FSBA': True},5808,-122.41364,1995000,2925,CA,455-457 Ellis Street,2074900,94102,2086820620,null
1,0,San Francisco,42,FOR_SALE,CONDO,https://photos.zillowstatic.com/fp/0678cc742f40f799de9373d5f85a5eed-p_e.jpg,37.7807,{'is_FSBA': True},255,-122.41327,369000,2361,CA,83 McAllister St APT 302,357500,94102,89240326,Apt 302
2,2,San Francisco,-1,FOR_SALE,CONDO,https://photos.zillowstatic.com/fp/527ef77aecabceb2d5350d87cad55ba6-p_e.jpg,37.77443,{'is_FSBA': True},1025,-122.42111,1199000,null,CA,11 Franklin St UNIT 603,null,94102,241585908,Unit 603
1,0,San Francisco,-1,FOR_SALE,CONDO,https://photos.zillowstatic.com/fp/a7bcb4ed77171fb1ffadaf488b46058c-p_e.jpg,37.78238,{'is_FSBA': True},0,-122.420166,388000,2535,CA,650 Turk St UNIT 306,383100,94102,82785500,Unit 306
1,0,San Francisco,-1,FOR_SALE,CONDO,https://photos.zillowstatic.com/fp/d53578305fc7b1d9e0a555381f26bb5c-p_e.jpg,37.78238,{'is_FSBA': True},391,-122.420166,385000,2139,CA,750 Van Ness Ave UNIT 402,381100,94102,82785466,Unit 402
2,2,San Francisco,-1,FOR_SALE,CONDO,https://photos.zillowstatic.com/fp/55185b253f8dbeb4fd33b392cba8a462-p_e.jpg,37.778168,{'is_FSBA': True},828,-122.42575,1025000,4099,CA,555 Fulton St SUITE 213,1057400,94102,325647757,Suite 213
1,1,San Francisco,61,FOR_SALE,CONDO,https://photos.zillowstatic.com/fp/d460eac649fcb6a840d5ddeaca617cbe-p_e.jpg,37.78168,{'is_FSBA': True},675,-122.42091,499000,null,CA,601 Van Ness Ave APT 242,null,94102,15077766,Apt 242
1,1,San Francisco,-1,FOR_SALE,CONDO,https://photos.zillowstatic.com/fp/fa58a35106686140a572930302559811-p_e.jpg,37.777035,{'is_FSBA': True},727,-122.42388,931000,3927,CA,450 Hayes St UNIT 3K,894700,94102,325728607,Unit 3K
1,1,San Francisco,69,FOR_SALE,CONDO,https://photos.zillowstatic.com/fp/17158a9730924436889a027ded02fc19-p_e.jpg,37.78168,{'is_FSBA': True},958,-122.42091,750000,4023,CA,601 Van Ness Ave APT 441,762600,94102,15077965,Apt 441
0,1,San Francisco,-1,FOR_SALE,MULTI_FAMILY,https://photos.zillowstatic.com/fp/ad516e98d1a21ac1de438a4923076eeb-p_e.jpg,37.77637,{'is_FSBA': True},3480,-122.42904,1995000,3724,CA,766 Hayes St,1936400,94102,2057717957,null
0,null,San Francisco,71,FOR_SALE,MULTI_FAMILY,https://photos.zillowstatic.com/fp/96d83ffa4ed44c548359391c11fd0b0b-p_e.jpg,37.77568,{'is_FSBA': True},7100,-122.42695,4200000,13710,CA,550 Fell St,4317300,94102,2057730593,null
1,0,San Francisco,-1,FOR_SALE,CONDO,https://photos.zillowstatic.com/fp/df5d8e51da257ccb773fa9b18d2d9fd0-p_e.jpg,37.783176,{'is_newHome': True},398,-122.40957,480000,2570,CA,960 Market St #408,466600,94102,337887536,# 408
2,2,San Francisco,-1,FOR_SALE,CONDO,https://photos.zillowstatic.com/fp/5b61b46972d2dbabf9cd0b1bfad7d8e2-p_e.jpg,37.783123,{'is_newHome': True},1001,-122.40955,1210000,4140,CA,960 Market St #620,1252300,94102,2057749557,# 620
1,1,San Francisco,-1,FOR_SALE,CONDO,https://photos.zillowstatic.com/fp/bad5eea169ef55b1c59df627b98fcd07-p_e.jpg,37.783176,{'is_newHome': True},649,-122.40957,685000,3196,CA,960 Market St #307,662600,94102,337887514,# 307
1,0,San Francisco,-1,FOR_SALE,CONDO,https://photos.zillowstatic.com/fp/5954b29cf7233fe7b0d66db763ef7ec5-p_e.jpg,37.783176,{'is_newHome': True},526,-122.40957,556500,2749,CA,960 Market St #316,540800,94102,337887523,# 316
1,0,San Francisco,-1,FOR_SALE,CONDO,https://photos.zillowstatic.com/fp/df5d8e51da257ccb773fa9b18d2d9fd0-p_e.jpg,37.783123,{'is_newHome': True},365,-122.40955,471500,2544,CA,960 Market St #518,493300,94102,2064146520,# 518
2,2,San Francisco,-1,FOR_SALE,CONDO,https://photos.zillowstatic.com/fp/d5877e46cf0221207ef90c15b957de6e-p_e.jpg,37.774117,{'is_FSBA': True},1820,-122.42803,1350000,6499,CA,527 Oak St,1277700,94102,119685853,null
0,null,San Francisco,75,FOR_SALE,MULTI_FAMILY,https://photos.zillowstatic.com/fp/e04671fc75a21442af61282f7f87d27f-p_e.jpg,null,{'is_FSBA': True},11960,null,4350000,14074,CA,237 Leavenworth St,4429300,94102,2111863768,null
1,1,San Francisco,81,FOR_SALE,CONDO,https://photos.zillowstatic.com/fp/e3affa157e2ab434ebd8d447f183092d-p_e.jpg,37.78168,{'is_FSBA': True},749,-122.42091,599000,3843,CA,601 Van Ness Ave APT 801,556900,94102,15077806,Apt 801
2,2,San Francisco,-1,FOR_SALE,CONDO,https://photos.zillowstatic.com/fp/faced18c8d161c4b59b288ba08ba564d-p_e.jpg,37.78168,{'is_FSBA': True},977,-122.42091,649000,4104,CA,601 Van Ness Ave APT 64,604100,94102,15077588,Apt 64
0,null,San Francisco,106,FOR_SALE,LOT,https://photos.zillowstatic.com/fp/8f356d0681dad23c364e9ccf2afd4beb-p_e.jpg,37.775517,{'is_FSBA': True},0,-122.424126,2500000,null,CA,350 Octavia St,null,94102,2072965709,null
1,0,San Francisco,113,FOR_SALE,CONDO,https://photos.zillowstatic.com/fp/f0f9e06e283144a0bd7a64908e680ed8-p_e.jpg,37.7807,{'is_FSBA': True},263,-122.41327,197467,null,CA,83 McAllister St APT 404,null,94102,89238455,Apt 404
1,2,San Francisco,0,FOR_SALE,MULTI_FAMILY,https://photos.zillowstatic.com/fp/e6d83631153a9aea40c272bf79947032-p_e.jpg,37.769543,{'is_FSBA': True},6150,-122.42409,2495000,null,CA,183-185 Duboce Ave,null,94103,2078564498,null
1,1,San Francisco,0,FOR_SALE,CONDO,https://photos.zillowstatic.com/fp/48bae6b348049f121e5902e6d8aef543-p_e.jpg,null,{'is_newHome': True},0,null,595000,2700,CA,1288 Howard St #603,571000,94103,2060295623,# 603
3,3,San Francisco,1,FOR_SALE,CONDO,https://photos.zillowstatic.com/fp/a14acb7fe6e6075efa476fb2573d5fcf-p_e.jpg,37.785397,{'is_FSBA': True},2567,-122.40439,4250000,11443,CA,765 Market St APT 22D,4404500,94103,63197281,Apt 22D
1,0,San Francisco,-1,FOR_SALE,CONDO,https://photos.zillowstatic.com/fp/627a2b4a088ed063061b73f7e22ff79f-p_e.jpg,37.7671,"{'is_FSBA': True, 'is_openHouse': True}",633,-122.41945,649000,3153,CA,1875 Mission St APT 108,691500,94103,184816791,Apt 108
3,3,San Francisco,-1,FOR_SALE,CONDO,https://photos.zillowstatic.com/fp/1cacb80767a6e0364db44864231e80c5-p_e.jpg,37.775654,"{'is_FSBA': True, 'is_openHouse': True}",2000,-122.402275,1645000,5527,CA,317 Harriet St #20,1715100,94103,80734645,# 20
2,1,San Francisco,-1,FOR_SALE,CONDO,https://photos.zillowstatic.com/fp/2e1f138dba8053172cb2434013e51620-p_e.jpg,37.777935,"{'is_FSBA': True, 'is_openHouse': True}",1190,-122.405396,749000,3193,CA,322 6th St APT 13,779800,94103,64969369,Apt 13
1,1,San Francisco,-1,FOR_SALE,CONDO,https://photos.zillowstatic.com/fp/7a613ea9275eb67196b2a668f58f3179-p_e.jpg,37.768333,{'is_FSBA': True},754,-122.42284,648998,null,CA,422 14th St,null,94103,2056444887,null
3,2,San Francisco,4,FOR_SALE,CONDO,https://photos.zillowstatic.com/fp/b0be65f1b645838e19f4834775dbfca4-p_e.jpg,37.773624,{'is_FSBA': True},1652,-122.40472,1198000,4994,CA,321 Langton St UNIT 5,1268000,94103,80733902,Unit 5
2,1,San Francisco,-1,FOR_SALE,CONDO,https://photos.zillowstatic.com/fp/947d8d31a436bbabe34049b313a1af3b-p_e.jpg,37.7717,"{'is_FSBA': True, 'is_openHouse': True}",830,-122.41885,363234,2945,CA,140 S Van Ness Ave UNIT 305,388700,94103,64969446,Unit 305
2,1,San Francisco,10,FOR_SALE,CONDO,https://photos.zillowstatic.com/fp/51af47e3ce8c9d6f3d926aaab9f13831-p_e.jpg,37.77093,{'is_FSBA': True},1102,-122.41242,848000,4220,CA,1488 Harrison St APT 104,837000,94103,59779634,Apt 104
2,2,San Francisco,11,FOR_SALE,CONDO,https://photos.zillowstatic.com/fp/e556548afacd2619857ada1697d22699-p_e.jpg,37.778683,{'is_newHome': True},1031,-122.41246,949888,null,CA,1160 Mission St UNIT 807,null,94103,82785874,Unit 807
1,1,San Francisco,11,FOR_SALE,CONDO,https://photos.zillowstatic.com/fp/a6e9d4ebc927573f0f00589c8abf3c7d-p_e.jpg,37.76783,{'is_FSBA': True},1020,-122.42289,899000,4067,CA,427 14th St,960200,94103,249664799,null
3,9,San Francisco,12,FOR_SALE,MULTI_FAMILY,https://photos.zillowstatic.com/fp/685137ece2a271a0bec16d3d9e29351a-p_e.jpg,37.774673,{'is_FSBA': True},2125,-122.40264,1275000,2394,CA,51 Boardman Pl,1292500,94103,332860319,null
2,2,San Francisco,13,FOR_SALE,CONDO,https://photos.zillowstatic.com/fp/aa9878537858366b6b79220cd395296b-p_e.jpg,37.778683,{'is_FSBA': True},1146,-122.41246,1075000,4500,CA,1160 Mission St UNIT 1506,1103700,94103,83153875,Unit 1506
1,1,San Francisco,18,FOR_SALE,CONDO,https://photos.zillowstatic.com/fp/2950bb769f47da78e7a421aae0c55a9a-p_e.jpg,null,{'is_newHome': True},0,null,675000,2999,CA,1288 Howard St #322,688200,94103,2066632865,# 322
4,4,San Francisco,-1,FOR_SALE,MULTI_FAMILY,https://photos.zillowstatic.com/fp/41e39f99d83c24949443000737970849-p_e.jpg,37.77775,{'is_FSBA': True},3032,-122.41144,1499500,11644,CA,651 Minna St,1566800,94103,2075615600,null
4,3,San Francisco,23,FOR_SALE,MULTI_FAMILY,https://photos.zillowstatic.com/fp/9eebc15b4cb1d0b51a77f07bbcc7956c-p_e.jpg,37.76953,{'is_FSBA': True},3210,-122.42438,1500000,13654,CA,197-199 Duboce Ave,1477600,94103,332858981,null
0,null,San Francisco,25,FOR_SALE,MULTI_FAMILY,https://photos.zillowstatic.com/fp/b960cdc02b2f1f45c48de6ee52e4bb1e-p_e.jpg,37.76863,{'is_FSBA': True},4004,-122.42062,1950000,2891,CA,85 Woodward St,2059800,94103,2072037431,null
2,1,San Francisco,25,FOR_SALE,CONDO,https://photos.zillowstatic.com/fp/6e2f46d21278d43891c99c3f1a553b5f-p_e.jpg,37.778347,{'is_FSBA': True},780,-122.4068,649000,3828,CA,68 Harriet St UNIT 3,640500,94103,67395850,Unit 3
3,2,San Francisco,26,FOR_SALE,CONDO,https://photos.zillowstatic.com/fp/d12c0fbf81349be85bcb482a09cd262d-p_e.jpg,37.785397,{'is_FSBA': True},2730,-122.40439,4900000,null,CA,765 Market St APT 24F,null,94103,63197299,Apt 24F
0,8,San Francisco,27,FOR_SALE,MULTI_FAMILY,https://photos.zillowstatic.com/fp/91613150193a5d79d26e43fe0c7355cb-p_e.jpg,37.777184,{'is_FSBA': True},4390,-122.41122,1600000,4194,CA,663-665 Natoma St,1570700,94103,332860260,null
3,5,San Francisco,-1,FOR_SALE,MULTI_FAMILY,https://photos.zillowstatic.com/fp/b5dbb506ad4ef788aaf8066c16ff0ad2-p_e.jpg,37.76513,{'is_FSBA': True},5120,-122.424774,1950000,14247,CA,74-84 Spencer St,2265400,94103,2057104591,null
0,null,San Francisco,-1,FOR_SALE,MULTI_FAMILY,https://photos.zillowstatic.com/fp/a2c6bb92435352351b1597f9fc6fd453-p_e.jpg,null,"{'is_FSBA': True, 'is_openHouse': True}",8712,null,3666666,null,CA,64-68 6th St,null,94103,2070243478,null
2,3,San Francisco,-1,FOR_SALE,CONDO,https://photos.zillowstatic.com/fp/beaf7a14c90b4ffb6d89ba4baa377b75-p_e.jpg,37.76546,"{'is_FSBA': True, 'is_openHouse': True}",1142,-122.42492,1075000,null,CA,1839 15th St APT 461,null,94103,15143299,Apt 461
1,0,San Francisco,34,FOR_SALE,CONDO,https://photos.zillowstatic.com/fp/ec678f755d8e6fb895a12cbfabf9f921-p_e.jpg,37.780643,{'is_FSBA': True},423,-122.41161,488000,null,CA,1075 Market St UNIT 711,null,94103,303806745,Unit 711
1,1,San Francisco,35,FOR_SALE,CONDO,https://photos.zillowstatic.com/fp/9a7df0d68572b0617052cd385eae9936-p_e.jpg,37.780643,{'is_newHome': True},672,-122.41161,588000,null,CA,1075 Market St #306,null,94103,303806656,# 306
1,1,San Francisco,-1,FOR_SALE,CONDO,https://photos.zillowstatic.com/fp/0cfd7b3fcb3730eab01a7a579e7fe720-p_e.jpg,37.76514,{'is_FSBA': True},662,-122.407814,868888,3399,CA,338 Potrero Ave UNIT 807,925000,94103,241586404,Unit 807
2,1,San Francisco,40,FOR_SALE,CONDO,https://photos.zillowstatic.com/fp/66550d42f045c7994426f5f88b074900-p_e.jpg,37.7717,{'is_FSBA': True},830,-122.41885,699000,3963,CA,140 S Van Ness Ave UNIT 426,677900,94103,64969426,Unit 426
1,1,San Francisco,40,FOR_SALE,CONDO,https://photos.zillowstatic.com/fp/750d7e7aa48d1ac75b74902a650ee393-p_e.jpg,37.782974,{'is_FSBA': True},601,-122.407906,499000,3329,CA,6 Mint Plz APT 301A,484100,94103,89237599,Apt 301A
4,6,San Francisco,41,FOR_SALE,MULTI_FAMILY,https://photos.zillowstatic.com/fp/f8c62864e2700698e9fa8e8b4063231f-p_e.jpg,37.77431,{'is_FSBA': True},0,-122.410095,799000,9000,CA,24 Ringold St,812200,94103,2085956510,null
0,null,San Francisco,42,FOR_SALE,MULTI_FAMILY,https://photos.zillowstatic.com/fp/c19e1d0bf3a225662de614d859e555c7-p_e.jpg,null,{'is_FSBA': True},3650,null,1940000,2880,CA,452-454 Clementina St,1992000,94103,2068567324,null
2,2,San Francisco,45,FOR_SALE,CONDO,https://photos.zillowstatic.com/fp/0349777e0dfedeb77cbd200467fe52a2-p_e.jpg,37.77095,{'is_FSBA': True},1609,-122.41005,1275000,5998,CA,465 10th St APT 206,1323100,94103,2075613570,Apt 206
3,2,San Francisco,46,FOR_SALE,CONDO,https://photos.zillowstatic.com/fp/226273ed86a452a7eef6391648859e5b-p_e.jpg,37.77562,{'is_FSBA': True},2980,-122.4118,2099000,null,CA,1233 Howard St APT 716,null,94103,2130400409,Apt 716
3,2,San Francisco,-1,FOR_SALE,CONDO,https://photos.zillowstatic.com/fp/38b421757f801714e087b46e4e063c9c-p_e.jpg,37.785973,{'is_newHome': True},2742,-122.40322,4488000,14463,CA,706 Mission St #12B,4253800,94103,335654551,# 12B
4,5,San Francisco,-1,FOR_SALE,SINGLE_FAMILY,https://photos.zillowstatic.com/fp/c2cb86652016753dcfe8cf528bbb1077-p_e.jpg,37.766857,{'is_FSBA': True},2915,-122.425896,3395000,12360,CA,25 Hidalgo Ter,3254800,94103,15143062,null
null,null,San Francisco,-1,FOR_SALE,MULTI_FAMILY,https://photos.zillowstatic.com/fp/638c3050da526d457beaf14c818f888b-p_e.jpg,null,{'is_FSBA': True},27072,null,9888000,3650,CA,Mission Sanfrancisco,null,94103,2057356752,null
0,null,San Francisco,47,FOR_SALE,MULTI_FAMILY,https://photos.zillowstatic.com/fp/c7a5da46b0031a772365c87d58c002cc-p_e.jpg,null,{'is_FSBA': True},8508,null,4400000,14455,CA,1371-1379 Minna St,4529300,94103,2061480924,null
2,2,San Francisco,-1,FOR_SALE,CONDO,https://photos.zillowstatic.com/fp/9351d0c0ad084b084cf04b7a76858215-p_e.jpg,37.785973,{'is_newHome': True},1304,-122.40322,2108000,5600,CA,706 Mission St #11C,2022500,94103,335654406,# 11C
1,1,San Francisco,49,FOR_SALE,CONDO,https://photos.zillowstatic.com/fp/ce1ec266c4b4dba30053eb402343434a-p_e.jpg,37.783173,{'is_FSBA': True},1092,-122.40769,800000,3900,CA,2 Mint Plz SUITE 704,768700,94103,80754631,Suite 704
1,1,San Francisco,50,FOR_SALE,CONDO,https://photos.zillowstatic.com/fp/f4f5880d91aaa72b3bb4046c6a06d2f7-p_e.jpg,37.779068,{'is_FSBA': True},690,-122.41033,550000,3468,CA,588 Minna St #306,537500,94103,337887918,# 306
2,1,San Francisco,-1,FOR_SALE,CONDO,https://photos.zillowstatic.com/fp/bda8183e34a4120f8432e65882a1deb0-p_e.jpg,37.777615,{'is_FSBA': True},988,-122.40499,749000,3999,CA,155 Harriet St SUITE 3,723800,94103,59700486,Suite 3
3,2,San Francisco,140,FOR_SALE,CONDO,https://photos.zillowstatic.com/fp/6fcdbfae646a5905a3d1b2adc58e2400-p_e.jpg,37.788246,{'is_FSBA': True},1735,-122.40323,1785000,null,CA,690 Market St #901,null,94104,79847086,# 901
3,3,San Francisco,257,FOR_SALE,CONDO,https://photos.zillowstatic.com/fp/da2e1cfaea57081636eabebceb29f3fe-p_e.jpg,37.788246,{'is_FSBA': True},2485,-122.40323,2549000,9851,CA,690 Market St UNIT 1102,2374200,94104,89238030,Unit 1102
2,2,San Francisco,3,FOR_SALE,CONDO,https://photos.zillowstatic.com/fp/7cb4b6028b26f3a71abd19b002461a31-p_e.jpg,37.78606,{'is_FSBA': True},1334,-122.39217,2298000,6263,CA,401 Harrison St APT 35C,2376000,94105,249698604,Apt 35C
3,3,San Francisco,3,FOR_SALE,CONDO,https://photos.zillowstatic.com/fp/d670481426ac8536e80b0938b9be33d8-p_e.jpg,37.78629,{'is_FSBA': True},2027,-122.401375,3500000,9371,CA,188 Minna St APT 24A,3606800,94105,69819146,Apt 24A
1,1,San Francisco,4,FOR_SALE,CONDO,https://photos.zillowstatic.com/fp/5302bbca48d57e508cf1aa4464bfb2c1-p_e.jpg,37.786087,{'is_FSBA': True},755,-122.39221,1095000,4300,CA,425 1st St UNIT 1608,1136600,94105,83153982,Unit 1608
3,2,San Francisco,-1,FOR_SALE,CONDO,https://photos.zillowstatic.com/fp/22a4b34fa7d30d13e09c8700c990ee93-p_e.jpg,37.789375,{'is_FSBA': True},1822,-122.39097,1829000,8500,CA,301 Main St UNIT 3B,1899300,94105,89240091,Unit 3B
3,3,San Francisco,-1,FOR_SALE,CONDO,https://photos.zillowstatic.com/fp/0ea9f7c0f914afb6cff9bc7e8ba133ec-p_e.jpg,37.78868,{'is_FSBA': True},1979,-122.39185,2395000,3418,CA,318 Main St UNIT 3F,2466700,94105,184817711,Unit 3F
4,3,San Francisco,-1,FOR_SALE,SINGLE_FAMILY,https://photos.zillowstatic.com/fp/f51fd995c2333f1bc35dc758db1675b3-p_e.jpg,37.789806,{'is_newHome': True},2263,-122.395355,6880000,20439,CA,"Residence 62B Plan, 181 Fremont",null,94105,2067085668,# RL0OS4
1,1,San Francisco,-1,FOR_SALE,CONDO,https://photos.zillowstatic.com/fp/cd6254f2c5169993e4b4889f133eb6a4-p_e.jpg,37.7861,{'is_FSBA': True},605,-122.39221,750000,null,CA,425 1st St UNIT 3304,null,94105,83154386,Unit 3304
4,3,San Francisco,-1,FOR_SALE,SINGLE_FAMILY,https://photos.zillowstatic.com/fp/312d8d76ce31e335bf357f4a348498e9-p_e.jpg,37.789806,{'is_newHome': True},1882,-122.395355,5660000,17313,CA,"Residence 63A Plan, 181 Fremont",null,94105,2063050085,# I11N4C
2,2,San Francisco,-1,FOR_SALE,CONDO,https://photos.zillowstatic.com/fp/8b42393eee16891989ddbc17f9706216-p_e.jpg,37.789635,{'is_FSBA': True},1160,-122.39075,1650000,null,CA,338 Spear St #26,null,94105,2056443922,# 26
3,3,San Francisco,5,FOR_SALE,CONDO,https://photos.zillowstatic.com/fp/04b6d61ee437958d324fdfbef55dcc3c-p_e.jpg,37.790325,{'is_newHome': True},2192,-122.39153,4270000,13509,CA,280 Spear St #36A,4349300,94105,335654714,# 36A
3,2,San Francisco,-1,FOR_SALE,SINGLE_FAMILY,https://photos.zillowstatic.com/fp/f51fd995c2333f1bc35dc758db1675b3-p_e.jpg,37.789806,{'is_newHome': True},1748,-122.395355,5400000,16085,CA,"Residence 67C Plan, 181 Fremont",null,94105,2067085672,# AUQ579
3,2,San Francisco,-1,FOR_SALE,CONDO,https://photos.zillowstatic.com/fp/f51fd995c2333f1bc35dc758db1675b3-p_e.jpg,37.789806,{'is_newHome': True},2226,-122.395355,5900000,17546,CA,"Residence 56B Plan, 181 Fremont",null,94105,2067085670,# OGMVP1
1,1,San Francisco,6,FOR_SALE,CONDO,https://photos.zillowstatic.com/fp/42cb513f6ed92400725808072b5f1dea-p_e.jpg,37.786903,{'is_FSBA': True},854,-122.39092,800000,null,CA,400 Beale St APT 1413,null,94105,80742639,Apt 1413
3,2,San Francisco,8,FOR_SALE,CONDO,https://photos.zillowstatic.com/fp/1ff5b25626f85207b826294fa067769c-p_e.jpg,37.78629,{'is_FSBA': True},1639,-122.401375,2598000,6570,CA,188 Minna St APT 37B,2642600,94105,69819208,Apt 37B
2,2,San Francisco,-1,FOR_SALE,SINGLE_FAMILY,https://photos.zillowstatic.com/fp/d60c72acf202dd5976ac671c4c73876b-p_e.jpg,37.789806,"{'is_newHome': True, 'is_openHouse': True}",1623,-122.395355,3820000,11432,CA,"Residence 62D Plan, 181 Fremont",null,94105,2067085671,# 1RRVO0
1,1,San Francisco,-1,FOR_SALE,CONDO,https://photos.zillowstatic.com/fp/ccd8e36954c1b1b5863c683a463ebaf6-p_e.jpg,37.785767,{'is_FSBA': True},524,-122.39887,575000,2987,CA,1 Hawthorne St UNIT 5B,599900,94105,122245372,Unit 5B
3,2,San Francisco,-1,FOR_SALE,SINGLE_FAMILY,https://photos.zillowstatic.com/fp/f51fd995c2333f1bc35dc758db1675b3-p_e.jpg,37.789806,{'is_newHome': True},1262,-122.395355,2450000,6368,CA,"Residence 62C Plan, 181 Fremont",null,94105,2067085673,# CWMEK2
2,2,San Francisco,12,FOR_SALE,CONDO,https://photos.zillowstatic.com/fp/20b23b376c7b83c122984ce42156edb6-p_e.jpg,37.790325,{'is_newHome': True},1212,-122.39153,1999000,5500,CA,280 Spear St #34C,1998000,94105,335654486,# 34C
2,2,San Francisco,18,FOR_SALE,CONDO,https://photos.zillowstatic.com/fp/986e828d99d19d9f165e08f695511cb2-p_e.jpg,37.790543,{'is_FSBA': True},1795,-122.39593,1750000,null,CA,301 Mission St APT 302,null,94105,114315565,Apt 302
1,1,San Francisco,18,FOR_SALE,CONDO,https://photos.zillowstatic.com/fp/bc01f092ebd2bcd04f9d51ce02120862-p_e.jpg,37.786087,{'is_FSBA': True},755,-122.39221,1198000,4005,CA,425 1st St UNIT 2708,1219600,94105,82786146,Unit 2708
1,1,San Francisco,-1,FOR_SALE,CONDO,https://photos.zillowstatic.com/fp/3f09ab5a4ecb4ab2b7aca5c01a1f2b74-p_e.jpg,37.790325,{'is_newHome': True},791,-122.39153,1300000,3884,CA,280 Spear St #23F,1267500,94105,335654477,# 23F
1,1,San Francisco,-1,FOR_SALE,CONDO,https://photos.zillowstatic.com/fp/e434e1ee0314f2f9faa909993fff8c72-p_e.jpg,37.787457,"{'is_FSBA': True, 'is_openHouse': True}",694,-122.401306,749000,null,CA,74 New Montgomery St UNIT 307,null,94105,82785963,Unit 307
1,1,San Francisco,26,FOR_SALE,CONDO,https://photos.zillowstatic.com/fp/329d15f4301c82516ff4c6e398b7e96c-p_e.jpg,37.786236,{'is_FSBA': True},759,-122.38907,840000,3800,CA,501 Beale St UNIT 16E,817900,94105,79843632,Unit 16E
4,3,San Francisco,27,FOR_SALE,CONDO,https://photos.zillowstatic.com/fp/199c2c4010e648b9f0e95cf633e4a51c-p_e.jpg,null,{'is_FSBA': True},3315,null,6800000,null,CA,(undisclosed Address),null,94105,111934403,null
1,0,San Francisco,32,FOR_SALE,CONDO,https://photos.zillowstatic.com/fp/570d62dce601fa5d9cbf30ad2364fdda-p_e.jpg,37.78754,{'is_FSBA': True},420,-122.39053,418000,2914,CA,201 Harrison St APT 212,405100,94105,15148165,Apt 212
1,1,San Francisco,32,FOR_SALE,CONDO,https://photos.zillowstatic.com/fp/7cfbd844853532b7ac17f90294f394d2-p_e.jpg,37.788242,{'is_FSBA': True},811,-122.389786,875000,3884,CA,403 Main St APT 413N,841700,94105,15148590,Apt 413N
3,3,San Francisco,33,FOR_SALE,CONDO,https://photos.zillowstatic.com/fp/c61a5de5b3ad4b75227f72103e0eccf3-p_e.jpg,37.787903,{'is_newHome': True},1934,-122.39438,3725000,12087,CA,488 Folsom St #4401,3557900,94105,325647612,# 4401
3,3,San Francisco,33,FOR_SALE,CONDO,https://photos.zillowstatic.com/fp/7ade0f2ec79a44024db775d88b892735-p_e.jpg,37.787903,{'is_newHome': True},1898,-122.39438,3575000,11603,CA,488 Folsom St #3402,3412700,94105,325647575,# 3402
3,2,San Francisco,33,FOR_SALE,CONDO,https://photos.zillowstatic.com/fp/e62a4c2e30c19f3b81beb566da642836-p_e.jpg,37.78629,{'is_FSBA': True},1527,-122.401375,2950000,null,CA,188 Minna St APT 26F,null,94105,69819159,Apt 26F
3,4,San Francisco,-1,FOR_SALE,CONDO,https://photos.zillowstatic.com/fp/b5d9f16b8ae45525f065fd395650377f-p_e.jpg,37.790325,{'is_newHome': True},2355,-122.39153,5515000,17772,CA,280 Spear St #37D,5196200,94105,335654715,# 37D
2,2,San Francisco,-1,FOR_SALE,CONDO,https://photos.zillowstatic.com/fp/21cd87fd08df9229ec29d74a4ee5b38b-p_e.jpg,37.791595,{'is_newHome': True},0,-122.391594,2695000,8500,CA,1 Steuart St UNIT 904,2743200,94105,2057220927,Unit 904
2,2,San Francisco,40,FOR_SALE,CONDO,https://photos.zillowstatic.com/fp/97a87192ac256917de4e08ad0605f134-p_e.jpg,37.790543,{'is_FSBA': True},1098,-122.39593,1250000,null,CA,301 Mission St APT 18E,null,94105,111910164,Apt 18E
2,2,San Francisco,41,FOR_SALE,CONDO,https://photos.zillowstatic.com/fp/ddc22ceccdc02b516d505b5341951536-p_e.jpg,37.790543,{'is_FSBA': True},1268,-122.39593,999000,5570,CA,301 Mission St APT 5G,944500,94105,111930562,Apt 5G
4,3,San Francisco,42,FOR_SALE,CONDO,https://photos.zillowstatic.com/fp/5007dee4ebae813c161d312c4fab6fab-p_e.jpg,37.790543,{'is_FSBA': True},3315,-122.39593,7250000,23494,CA,301 Mission St APT 50B,6762000,94105,114316520,Apt 50B
3,2,San Francisco,-1,FOR_SALE,CONDO,https://photos.zillowstatic.com/fp/23a34b55fc1cf6b7eb7b0a15291e3681-p_e.jpg,37.78975,{'is_newHome': True},1260,-122.395294,2650000,5749,CA,181 Fremont St UNIT 64C,2530100,94105,249664942,Unit 64C
2,2,San Francisco,-1,FOR_SALE,CONDO,https://photos.zillowstatic.com/fp/88e1a75acb93abb62a2bc8351feb3dd2-p_e.jpg,37.791595,{'is_newHome': True},1514,-122.391594,2395000,5996,CA,1 Steuart St UNIT 606,2423000,94105,2057334022,Unit 606
2,2,San Francisco,-1,FOR_SALE,CONDO,https://photos.zillowstatic.com/fp/26edffc5772d5a4b46ab6fe52cd32012-p_e.jpg,37.788242,{'is_FSBA': True},1083,-122.389786,1080000,5200,CA,403 Main St APT 120N,1039000,94105,15148537,Apt 120N
3,2,San Francisco,46,FOR_SALE,CONDO,https://photos.zillowstatic.com/fp/7dd087a7d4d9ec13a7ad44a181d4f122-p_e.jpg,37.790543,{'is_FSBA': True},1652,-122.39593,1350000,null,CA,301 Mission St APT 27B,null,94105,114317207,Apt 27B
2,2,San Francisco,-1,FOR_SALE,CONDO,https://photos.zillowstatic.com/fp/764a7dfef4dfdd7ca0543e79d732945c-p_e.jpg,37.790325,{'is_newHome': True},1046,-122.39153,1530000,4706,CA,280 Spear St #21D,1473400,94105,335654378,# 21D
2,2,San Francisco,-1,FOR_SALE,CONDO,https://photos.zillowstatic.com/fp/20f5bfb512b1cb6acf346a266b762ec0-p_e.jpg,37.78606,"{'is_newHome': True, 'is_openHouse': True}",1311,-122.39217,1695000,5795,CA,401 Harrison St APT 26B,1610600,94105,249698546,Apt 26B
2,2,San Francisco,-1,FOR_SALE,CONDO,https://photos.zillowstatic.com/fp/4648ea7f31ff897ca249dc549b9f3824-p_e.jpg,37.790325,{'is_FSBA': True},1312,-122.39153,2075000,5795,CA,280 Spear St #29C,1966100,94105,335654240,# 29C
1,1,San Francisco,-1,FOR_SALE,CONDO,https://photos.zillowstatic.com/fp/af64c6663d32a4abc2a80d8dd0cce7a9-p_e.jpg,37.75388,"{'is_FSBA': True, 'is_openHouse': True}",602,-122.40201,598888,null,CA,2225 23rd St UNIT 215,null,94107,15152045,Unit 215
2,2,San Francisco,4,FOR_SALE,CONDO,https://photos.zillowstatic.com/fp/39528cd5300a6e4722c2dd67617aec6c-p_e.jpg,37.762268,{'is_newHome': True},1155,-122.3883,1395000,4726,CA,2177 3rd St #215,1330000,94107,335654391,# 215
3,3,San Francisco,-1,FOR_SALE,SINGLE_FAMILY,https://photos.zillowstatic.com/fp/07f70a3cd4f1054edfc147cef5da7e9b-p_e.jpg,37.760468,"{'is_FSBA': True, 'is_openHouse': True}",1700,-122.404755,1895000,6140,CA,709 San Bruno Ave,2067800,94107,332860609,null
2,2,San Francisco,-1,FOR_SALE,CONDO,https://photos.zillowstatic.com/fp/952227fd7c62a1c2caad27e1fa0c1387-p_e.jpg,37.763023,"{'is_FSBA': True, 'is_openHouse': True}",1290,-122.39688,1495000,null,CA,264 Missouri St,null,94107,2056466043,null
1,1,San Francisco,-1,FOR_SALE,CONDO,https://photos.zillowstatic.com/fp/783c16a42811060194e87726de1bda8e-p_e.jpg,37.77038,{'is_FSBA': True},535,-122.40106,455690,2951,CA,888 7th St UNIT 143,491800,94107,89237687,Unit 143
1,null,San Francisco,7,FOR_SALE,CONDO,https://photos.zillowstatic.com/fp/587ab3bb804a3c63133ee924604c4174-p_e.jpg,37.762283,{'is_newHome': True},515,-122.3884,725000,3963,CA,"Studio Plan, 2177 Third Street",null,94107,2077776280,# LK6RGM
5,6,San Francisco,-1,FOR_SALE,MULTI_FAMILY,https://photos.zillowstatic.com/fp/bd57bddbe613066b22b5171cd8d278ab-p_e.jpg,37.754845,{'is_FSBA': True},3984,-122.400826,2388000,3565,CA,1180 De Haro St,null,94107,2112226881,null
1,1,San Francisco,8,FOR_SALE,CONDO,https://photos.zillowstatic.com/fp/fd7debbcffbc825f6fa41e51c1a0f3c0-p_e.jpg,37.762283,{'is_newHome': True},680,-122.3884,935000,3362,CA,"1 bed 1 bath Plan, 2177 Third Street",null,94107,2077776279,# FSEXKE
2,2,San Francisco,9,FOR_SALE,CONDO,https://photos.zillowstatic.com/fp/d5c8502ef754407df0bdde6933dd5764-p_e.jpg,37.762283,{'is_newHome': True},981,-122.3884,1395000,4397,CA,"2 bed 2 bath Plan, 2177 Third Street",null,94107,2077776281,# U56ZBT
1,1,San Francisco,10,FOR_SALE,CONDO,https://photos.zillowstatic.com/fp/60b5809243290f8052034fbce2e7f9db-p_e.jpg,37.77686,{'is_FSBA': True},803,-122.39559,799999,3300,CA,310 Townsend St APT 207,815300,94107,82786198,Apt 207
2,1,San Francisco,12,FOR_SALE,CONDO,https://photos.zillowstatic.com/fp/3202d25bcb94c5544d7ec58022724d94-p_e.jpg,37.784157,{'is_FSBA': True},1162,-122.39662,788000,3273,CA,77 Dow Pl APT 709,821900,94107,61325300,Apt 709
1,1,San Francisco,-1,FOR_SALE,CONDO,https://photos.zillowstatic.com/fp/2b67581b64706953e174fc648c59b52b-p_e.jpg,37.782238,"{'is_FSBA': True, 'is_openHouse': True}",722,-122.38952,795000,3814,CA,88 Townsend St APT 316,825400,94107,80755527,Apt 316
3,4,San Francisco,-1,FOR_SALE,SINGLE_FAMILY,https://photos.zillowstatic.com/fp/59e77ded198499723b9d6bb7c6a1544e-p_e.jpg,37.75269,"{'is_FSBA': True, 'is_openHouse': True}",2520,-122.394,1699000,7990,CA,1506 25th St,1861100,94107,2060419701,null
2,2,San Francisco,20,FOR_SALE,CONDO,https://photos.zillowstatic.com/fp/e982f9ce13b41fff787923fbea1649e9-p_e.jpg,37.782776,{'is_FSBA': True},1734,-122.38969,2298000,6994,CA,650 Delancey St APT 112,2370200,94107,80741441,Apt 112
3,3,San Francisco,21,FOR_SALE,CONDO,https://photos.zillowstatic.com/fp/f1331e92e0176db0cbdd3c8671f07d10-p_e.jpg,37.7836,{'is_FSBA': True},2391,-122.39071,2850000,9380,CA,200 Brannan St APT 232,2812700,94107,69817622,Apt 232
2,2,San Francisco,22,FOR_SALE,CONDO,https://photos.zillowstatic.com/fp/838b08ff3fde972cec075509d6c3a3ed-p_e.jpg,37.781387,{'is_newHome': True},1090,-122.39035,1498000,4582,CA,72 Townsend St #606,1529100,94107,332863661,# 606
1,2,San Francisco,24,FOR_SALE,CONDO,https://photos.zillowstatic.com/fp/9c62b9fad8360ac4ea0568e939c69e99-p_e.jpg,37.76351,{'is_FSBA': True},2016,-122.3979,825000,4028,CA,214 Connecticut St,909300,94107,2100911862,null
1,2,San Francisco,24,FOR_SALE,CONDO,https://photos.zillowstatic.com/fp/9c62b9fad8360ac4ea0568e939c69e99-p_e.jpg,37.76351,{'is_FSBA': True},2016,-122.3979,875000,4028,CA,212 Connecticut St,1819200,94107,2100327063,null
2,2,San Francisco,-1,FOR_SALE,CONDO,https://photos.zillowstatic.com/fp/0b916a9ddb72ed5e840e5a7590e7c6a0-p_e.jpg,37.76046,{'is_FSBA': True},1150,-122.39972,995000,5058,CA,528 Wisconsin St,1029800,94107,15149771,null
6,6,San Francisco,25,FOR_SALE,MULTI_FAMILY,https://photos.zillowstatic.com/fp/16f66036a6037655edf5fe0bf5647703-p_e.jpg,37.756695,{'is_FSBA': True},4458,-122.40114,3995000,13499,CA,1026-1030 De Haro St,4224600,94107,2056989880,null
1,1,San Francisco,25,FOR_SALE,CONDO,https://photos.zillowstatic.com/fp/1a7ad744cd11b941d8761d1ffb73434e-p_e.jpg,37.75796,{'is_FSBA': True},655,-122.39457,799000,null,CA,1300 22nd St #103,null,94107,249664742,# 103
1,1,San Francisco,27,FOR_SALE,CONDO,https://photos.zillowstatic.com/fp/d7edb92f3fac2ef5389555ad42570793-p_e.jpg,37.779743,{'is_FSBA': True},628,-122.40136,649000,null,CA,870 Harrison St UNIT 301,null,94107,184817745,Unit 301
1,0,San Francisco,-1,FOR_SALE,CONDO,https://photos.zillowstatic.com/fp/c1703cc9139d308422379caf2b686b1b-p_e.jpg,37.753872,{'is_FSBA': True},456,-122.40201,489000,2914,CA,2250 24th St UNIT 235,506700,94107,15152062,Unit 235
3,3,San Francisco,32,FOR_SALE,CONDO,https://photos.zillowstatic.com/fp/bd81c248ea10c2005698ea204cb323c2-p_e.jpg,37.757225,{'is_FSBA': True},1641,-122.38854,1495000,6347,CA,2546 3rd St APT 4,1468800,94107,61325355,Apt 4
0,4,San Francisco,-1,FOR_SALE,MULTI_FAMILY,https://photos.zillowstatic.com/fp/9c62b9fad8360ac4ea0568e939c69e99-p_e.jpg,37.76351,{'is_FSBA': True},2016,-122.3979,1700000,4500,CA,212-214 Connecticut St,1700100,94107,332860438,null
3,2,San Francisco,-1,FOR_SALE,CONDO,https://photos.zillowstatic.com/fp/c217ddddd3cbfa2861a5ed70ec92950d-p_e.jpg,37.779045,{'is_FSBA': True},1850,-122.39718,1685000,null,CA,555 4th St UNIT 813,null,94107,79847725,Unit 813
1,0,San Francisco,33,FOR_SALE,CONDO,https://photos.zillowstatic.com/fp/12b6db38577a375f56560a2f357de1cc-p_e.jpg,37.764065,{'is_FSBA': True},468,-122.403275,525000,2914,CA,451 Kansas St UNIT 563,540900,94107,89238051,Unit 563
6,7,San Francisco,33,FOR_SALE,MULTI_FAMILY,https://photos.zillowstatic.com/fp/fd9984614a3f7e5eaf52b4c5308f2926-p_e.jpg,37.763023,{'is_FSBA': True},3998,-122.39688,4625000,15675,CA,262-266 Missouri St,4479200,94107,332860446,null
4,3,San Francisco,34,FOR_SALE,CONDO,https://photos.zillowstatic.com/fp/92985c892433eec31a7d0e935f1a8615-p_e.jpg,37.75906,{'is_FSBA': True},1765,-122.39616,1895000,6499,CA,572 Missouri St #A,2016100,94107,2060459312,# A
2,3,San Francisco,34,FOR_SALE,CONDO,https://photos.zillowstatic.com/fp/fc06b36a1eef2e1966c9cfd3b98718cc-p_e.jpg,37.77801,{'is_FSBA': True},1543,-122.39325,1350000,6000,CA,250 King St UNIT 462,1328800,94107,80752045,Unit 462
3,2,San Francisco,-1,FOR_SALE,CONDO,https://photos.zillowstatic.com/fp/2173c3dc6ccfd76042a6f910209269b3-p_e.jpg,37.78054,{'is_FSBA': True},1255,-122.38908,1295000,5411,CA,88 King St UNIT 125,1264100,94107,54854643,Unit 125
2,2,San Francisco,-1,FOR_SALE,CONDO,https://photos.zillowstatic.com/fp/e0371334113b3b549bfa07da3239932a-p_e.jpg,37.763023,{'is_FSBA': True},1408,-122.39688,1650000,5937,CA,266 Missouri St,1763600,94107,2057194285,null
2,2,San Francisco,39,FOR_SALE,CONDO,https://photos.zillowstatic.com/fp/ce90e49f3be09f2f620e132117cd5af2-p_e.jpg,37.7837,{'is_FSBA': True},2036,-122.39358,2195000,5711,CA,461 2nd St APT C129,2256800,94107,2086985166,Apt C129
1,1,San Francisco,39,FOR_SALE,CONDO,https://photos.zillowstatic.com/fp/2d853df18aa35822aed3640847086b53-p_e.jpg,37.758575,{'is_FSBA': True},0,-122.4036,720000,3028,CA,875 Vermont St APT 204,734600,94107,15150355,Apt 204
2,4,San Francisco,39,FOR_SALE,MULTI_FAMILY,https://photos.zillowstatic.com/fp/4258c49945b00f93718eb36cdabec21a-p_e.jpg,37.762978,{'is_FSBA': True},5505,-122.39431,2150000,5822,CA,253 Mississippi St,2296400,94107,2057208541,null
2,3,San Francisco,39,FOR_SALE,CONDO,https://photos.zillowstatic.com/fp/f0f096466c4306c5a1ba34fdfcf1d6b2-p_e.jpg,37.762905,{'is_FSBA': True},1515,-122.40173,2495000,5998,CA,540 De Haro St #202,2463900,94107,335654120,# 202
2,2,San Francisco,40,FOR_SALE,CONDO,https://photos.zillowstatic.com/fp/8ce10c72f0f2626580ee6adf06d1ee02-p_e.jpg,37.759743,{'is_FSBA': True},1083,-122.39017,1199000,null,CA,950 Tennessee St #214,null,94107,335653784,# 214
0,4,San Francisco,42,FOR_SALE,MULTI_FAMILY,https://photos.zillowstatic.com/fp/5094475159b5f0bc4218f9739fdb43d9-p_e.jpg,37.760796,{'is_FSBA': True},2472,-122.39702,2450000,4705,CA,431 Connecticut St,2404200,94107,332860581,null
1,1,San Francisco,45,FOR_SALE,SINGLE_FAMILY,https://photos.zillowstatic.com/fp/d465b7253220a1bb928eda88c188308e-p_e.jpg,37.75868,{'is_FSBA': True},652,-122.40361,775000,null,CA,869 Vermont St,null,94107,15150333,null
2,2,San Francisco,-1,FOR_SALE,CONDO,https://photos.zillowstatic.com/fp/19dd4c2ad8c5dd6bdf3cbf67102817a4-p_e.jpg,37.75796,"{'is_FSBA': True, 'is_openHouse': True}",920,-122.39457,1150000,null,CA,1300 22nd St APT 306,null,94107,249664655,Apt 306
2,1,San Francisco,45,FOR_SALE,CONDO,https://photos.zillowstatic.com/fp/9cdd1cf83102d4a86a129c4110eb44fb-p_e.jpg,37.78043,{'is_FSBA': True},856,-122.39608,899000,null,CA,226 Ritch St APT 203,null,94107,15148736,Apt 203
1,1,San Francisco,-1,FOR_SALE,CONDO,https://photos.zillowstatic.com/fp/a0739f76134227474ca95c625ea4a88b-p_e.jpg,37.79357,"{'is_FSBA': True, 'is_openHouse': True}",995,-122.41368,699000,3856,CA,1230 Clay St APT 202,755400,94108,15067727,Apt 202
1,1,San Francisco,12,FOR_SALE,CONDO,https://photos.zillowstatic.com/fp/81e7edcce4e69c09ced1a57b24288194-p_e.jpg,37.790775,{'is_FSBA': True},500,-122.408356,495000,2845,CA,5 Fella Pl APT 301,522600,94108,15068775,Apt 301
1,1,San Francisco,19,FOR_SALE,TOWNHOUSE,https://photos.zillowstatic.com/fp/54ad78a14edf3cd1a00d6f4b51197ce7-p_e.jpg,37.791786,{'is_newHome': True},747,-122.40879,1260000,3784,CA,875 California St #307,1291100,94108,337887487,# 307
2,2,San Francisco,22,FOR_SALE,CONDO,https://photos.zillowstatic.com/fp/168ca3f434942a6b609d93493676fd89-p_e.jpg,37.79293,{'is_FSBA': True},0,-122.412186,4500000,null,CA,1170 Sacramento St APT 11C,null,94108,15068048,Apt 11C
2,2,San Francisco,28,FOR_SALE,CONDO,"https://maps.googleapis.com/maps/api/staticmap?mobile=false&sensor=true&maptype=satellite&size=575x242&zoom=17&center=37.794715881347656,-122.40779876708984&key=AIzaSyBJsNQO5ZeG-XAbqqWLKwG08fWITSxg33w&signature=zeM114l8Wxat74WYbD9AT_N2Gfw=",37.794716,{'is_FSBA': True},690,-122.4078,688000,3780,CA,946 Stockton St APT 8C,683200,94108,15067596,Apt 8C
1,1,San Francisco,-1,FOR_SALE,CONDO,https://photos.zillowstatic.com/fp/1051c2a6dcd2fe39ac6d3561ad980cde-p_e.jpg,37.79107,{'is_FSBA': True},736,-122.411316,719000,3675,CA,930 Pine St APT 104,690300,94108,15068634,Apt 104
3,2,San Francisco,-1,FOR_SALE,CONDO,https://photos.zillowstatic.com/fp/dc1cdc44adaabb236cec17af29db4da8-p_e.jpg,37.791786,{'is_newHome': True},1422,-122.40879,2345000,6112,CA,875 California St #403,2236600,94108,337887490,# 403
3,3,San Francisco,-1,FOR_SALE,CONDO,https://photos.zillowstatic.com/fp/d72490f3b3aad25b663650720994c7cc-p_e.jpg,37.79286,{'is_FSBA': True},1808,-122.40894,1324999,8724,CA,850 Powell St APT 502,1259500,94108,15068212,Apt 502
2,2,San Francisco,-1,FOR_SALE,CONDO,https://photos.zillowstatic.com/fp/523a1629362fe7d60cbd2a3fb62bac73-p_e.jpg,37.79179,{'is_newHome': True},1321,-122.408714,2095000,5823,CA,875 California St #405,2003500,94108,337887492,# 405
4,4,San Francisco,71,FOR_SALE,CONDO,https://photos.zillowstatic.com/fp/9c8e04dfda3e26014a0dc5b33b0b3b60-p_e.jpg,null,{'is_FSBA': True},3140,null,2995000,null,CA,840 Powell St #301,null,94108,2060461492,# 301
1,0,San Francisco,-1,FOR_SALE,CONDO,https://photos.zillowstatic.com/fp/f4f603854759cb10ff3e25fd0d63dcb7-p_e.jpg,37.791027,{'is_FSBA': True},535,-122.41365,635000,2513,CA,1177 California St APT 622,611400,94108,15068541,Apt 622
2,3,San Francisco,-1,FOR_SALE,CONDO,https://photos.zillowstatic.com/fp/761e0c8798416ba21ff85194f4493104-p_e.jpg,37.79341,{'is_FSBA': True},1782,-122.40895,1585000,6410,CA,30 Miller Pl APT 8,1506100,94108,15068161,Apt 8
2,2,San Francisco,83,FOR_SALE,CONDO,https://photos.zillowstatic.com/fp/4bd151b5379abb5329e01b2779023be8-p_e.jpg,37.794716,{'is_FSBA': True},690,-122.4078,710000,3435,CA,946 Stockton St APT 18C,697500,94108,15067650,Apt 18C
1,1,San Francisco,-1,FOR_SALE,CONDO,https://photos.zillowstatic.com/fp/7019ca0874cecbaaf2059021591ce795-p_e.jpg,37.791027,{'is_FSBA': True},511,-122.41365,550000,2618,CA,1177 California St APT 1602,525600,94108,15068387,Apt 1602
3,3,San Francisco,-1,FOR_SALE,CONDO,https://photos.zillowstatic.com/fp/c60475ef6feb2c54953608e21c193b76-p_e.jpg,37.79455,{'is_FSBA': True},1756,-122.41274,1895000,8724,CA,1310 Taylor St,null,94108,241585503,null
4,3,San Francisco,108,FOR_SALE,CONDO,https://photos.zillowstatic.com/fp/99cbab9501617f1e3f4f4787785d294d-p_e.jpg,37.792953,{'is_FSBA': True},4320,-122.411385,8995000,28809,CA,1100 Sacramento St #1002,9035300,94108,2079047799,# 1002
1,1,San Francisco,-1,FOR_SALE,CONDO,https://photos.zillowstatic.com/fp/12466c1214c71e3399194041cd0f86de-p_e.jpg,37.791027,{'is_FSBA': True},656,-122.41365,649000,null,CA,1177 California St APT 1230,null,94108,15068440,Apt 1230
1,1,San Francisco,-1,FOR_SALE,CONDO,https://photos.zillowstatic.com/fp/b06a2e9a47eb1871dc8bb89a406b6f14-p_e.jpg,37.791027,{'is_FSBA': True},756,-122.41365,699000,3658,CA,1177 California St APT 1533,656300,94108,15068409,Apt 1533
4,3,San Francisco,120,FOR_SALE,CONDO,https://photos.zillowstatic.com/fp/fee679401a599be7ebbc382924ed513b-p_e.jpg,37.792953,{'is_FSBA': True},2426,-122.411385,5200000,16739,CA,1100 Sacramento St APT 402,5251800,94108,2107694405,Apt 402
3,2,San Francisco,123,FOR_SALE,CONDO,https://photos.zillowstatic.com/fp/56ba5ca409181feb0e6ebbeccaee0128-p_e.jpg,37.792984,{'is_FSBA': True},2592,-122.4118,3875000,12561,CA,1150 Sacramento St APT 501,3560200,94108,15067980,Apt 501
2,2,San Francisco,-1,FOR_SALE,CONDO,https://photos.zillowstatic.com/fp/5c5ebf741a632c2da86f02b80c7353db-p_e.jpg,37.791786,{'is_newHome': True},1201,-122.40879,2049000,4847,CA,875 California St #404,1929800,94108,337887491,# 404
1,1,San Francisco,-1,FOR_SALE,CONDO,https://photos.zillowstatic.com/fp/555ec385299f478101ddf675301bcfb9-p_e.jpg,37.791786,{'is_newHome': True},539,-122.40879,1235000,2734,CA,875 California St #606,1179800,94108,337887429,# 606
3,2,San Francisco,-1,FOR_SALE,MULTI_FAMILY,https://photos.zillowstatic.com/fp/89f1f3ee35d87539a3d87b01d8cb36d9-p_e.jpg,37.792114,{'is_FSBA': True},2950,-122.4057,1900000,12199,CA,550-552 Grant Ave,1791100,94108,241583295,null
4,2,San Francisco,131,FOR_SALE,CONDO,https://photos.zillowstatic.com/fp/748897fb49ad8b24235413c9f26e028f-p_e.jpg,null,{'is_FSBA': True},3752,null,8700000,null,CA,1001 California St #4,null,94108,2060459411,# 4
4,4,San Francisco,133,FOR_SALE,CONDO,https://photos.zillowstatic.com/fp/f0d34af3f590e4060defd553bcafb0a9-p_e.jpg,37.792675,{'is_FSBA': True},3083,-122.40885,3250000,10516,CA,840 Powell St #501,2982500,94108,15068183,# 501
4,4,San Francisco,151,FOR_SALE,CONDO,https://photos.zillowstatic.com/fp/90838c6bfe526542546535c444386979-p_e.jpg,37.79286,{'is_FSBA': True},2454,-122.40894,2600000,null,CA,850 Powell St APT 104,null,94108,15068192,Apt 104
3,2,San Francisco,181,FOR_SALE,CONDO,https://photos.zillowstatic.com/fp/22b50bb9211b2cb2395da2811160cb41-p_e.jpg,37.79293,{'is_FSBA': True},2075,-122.412186,2300000,8577,CA,1170 Sacramento St APT 5A,2152500,94108,15068023,Apt 5A
1,1,San Francisco,-1,FOR_SALE,CONDO,https://photos.zillowstatic.com/fp/df36b8558d9cafed52c419a9d1903162-p_e.jpg,37.791027,{'is_FSBA': True},706,-122.41365,674500,3517,CA,1177 California St APT 523,639300,94108,15068560,Apt 523
3,3,San Francisco,-1,FOR_SALE,CONDO,https://photos.zillowstatic.com/fp/fba60cb9ac37808a5b6daee99b3fc882-p_e.jpg,37.79293,{'is_FSBA': True},2780,-122.412186,4050000,12582,CA,1170 Sacramento St,3679500,94108,15068081,null
2,2,San Francisco,-1,FOR_SALE,CONDO,https://photos.zillowstatic.com/fp/8bb199c95120bf3a503ac88e86b4fa8d-p_e.jpg,37.791786,{'is_newHome': True},1408,-122.40879,2950000,9259,CA,875 California St #501,2769800,94108,337887495,# 501
1,1,San Francisco,286,FOR_SALE,CONDO,https://photos.zillowstatic.com/fp/461e5639c128b3ff57d7e7025710dad6-p_e.jpg,37.791027,{'is_FSBA': True},645,-122.41365,695000,3101,CA,1177 California St APT 830,628400,94108,2124398936,Apt 830
0,null,San Francisco,287,FOR_SALE,MULTI_FAMILY,https://photos.zillowstatic.com/fp/a6c5d463f7925a19820bdd27341863d5-p_e.jpg,37.795685,{'is_FSBA': True},5580,-122.40594,1980000,2840,CA,32-38 Wentworth Pl,1934300,94108,2061251148,null
1,1,San Francisco,-1,FOR_SALE,CONDO,https://photos.zillowstatic.com/fp/abaacc8d566986ec8aae9d258453cf86-p_e.jpg,37.791027,{'is_FSBA': True},886,-122.41365,930000,null,CA,1177 California St APT 509,null,94108,15068550,Apt 509
3,2,San Francisco,375,FOR_SALE,CONDO,https://photos.zillowstatic.com/fp/85368de06a91333e9cf974833383592e-p_e.jpg,37.79341,{'is_FSBA': True},2920,-122.40895,5995000,10744,CA,30 Miller Pl #13,3245300,94108,15068166,# 13
0,4,San Francisco,384,FOR_SALE,MULTI_FAMILY,https://photos.zillowstatic.com/fp/1aaa7b3b069f169b2be922e5b6ce16ed-p_e.jpg,37.79169,{'is_FSBA': True},3000,-122.40562,1680000,3999,CA,506-510 Grant Ave,2070400,94108,241583292,null
0,null,San Francisco,410,FOR_SALE,LOT,https://photos.zillowstatic.com/fp/1efc72b41311d4d9cc09862b2f4316e3-p_e.jpg,37.793465,{'is_FSBA': True},0,-122.40981,13500000,null,CA,941 Powell St,null,94108,124859561,null
1,1,San Francisco,-1,FOR_SALE,CONDO,https://photos.zillowstatic.com/fp/92ac09b22e42dca5d6410097a9b3e2aa-p_e.jpg,37.79323,{'is_FSBA': True},600,-122.40891,725000,3249,CA,10 Miller Pl APT 702,674400,94108,15068118,Apt 702
1,1,San Francisco,-1,FOR_SALE,CONDO,https://photos.zillowstatic.com/fp/135a3ffb9e2d6ebab78a7dc51746219a-p_e.jpg,37.789555,{'is_newHome': True},678,-122.42328,879000,3599,CA,1688 Pine St #E511,797500,94109,241585760,# E511
1,1,San Francisco,3,FOR_SALE,CONDO,https://photos.zillowstatic.com/fp/627fb7acab5812e61dcc350904335904-p_e.jpg,37.79351,{'is_FSBA': True},8221,-122.415855,895000,null,CA,1336 Leavenworth St,null,94109,2075614215,null
1,1,San Francisco,3,FOR_SALE,CONDO,https://photos.zillowstatic.com/fp/009ead7c509637280fde924ba1546772-p_e.jpg,37.786716,{'is_FSBA': True},650,-122.4242,599000,3162,CA,1483 Sutter St UNIT 1402,639600,94109,15076464,Unit 1402
0,null,San Francisco,-1,FOR_SALE,MULTI_FAMILY,https://photos.zillowstatic.com/fp/7c265477dd261e41af2a32bc23a63dd7-p_e.jpg,37.792263,"{'is_FSBA': True, 'is_openHouse': True}",10050,-122.41696,4850000,2695,CA,1456 Sacramento St,null,94109,2108805205,null
1,1,San Francisco,4,FOR_SALE,CONDO,https://photos.zillowstatic.com/fp/0c05033f987b77cb6ea4a30a2248e769-p_e.jpg,null,{'is_newHome': True},0,null,549000,3095,CA,1201 Sutter St #207,602800,94109,2059973406,# 207
1,1,San Francisco,4,FOR_SALE,CONDO,https://photos.zillowstatic.com/fp/33b4daee2addb3212ffec5458b526dba-p_e.jpg,37.78497,{'is_FSBA': True},840,-122.4243,728000,null,CA,1200 Gough St UNIT 5F,null,94109,15077013,Unit 5F
0,null,San Francisco,4,FOR_SALE,MULTI_FAMILY,https://photos.zillowstatic.com/fp/a857ed78fca5a83aafd38269adf594a6-p_e.jpg,null,{'is_FSBA': True},6075,null,2695000,2559,CA,1075 Ofarrell St,2504400,94109,2090918015,null
3,2,San Francisco,-1,FOR_SALE,CONDO,https://photos.zillowstatic.com/fp/b34d43343247afd680c17aa732e88fd0-p_e.jpg,37.788837,"{'is_FSBA': True, 'is_openHouse': True}",1190,-122.42127,999000,5176,CA,1452 Bush St UNIT 1,1019000,94109,67394949,Unit 1
1,1,San Francisco,-1,FOR_SALE,CONDO,https://photos.zillowstatic.com/fp/65b137cd2bdef58811a195cb6db66c5c-p_e.jpg,37.788364,"{'is_FSBA': True, 'is_openHouse': True}",383,-122.42084,345017,3266,CA,1433 Bush St UNIT 505,364100,94109,325648147,Unit 505
1,1,San Francisco,-1,FOR_SALE,CONDO,https://photos.zillowstatic.com/fp/627d3aed3d6201941dbd8900e3a6aaf4-p_e.jpg,37.788055,"{'is_FSBA': True, 'is_openHouse': True}",699,-122.423256,340082,3599,CA,1450 Franklin St APT 603,361400,94109,303806129,Apt 603
0,null,San Francisco,8,FOR_SALE,MULTI_FAMILY,https://photos.zillowstatic.com/fp/32434fb48c9f8bc4325f3e1c05006f4c-p_e.jpg,37.792007,{'is_FSBA': True},5194,-122.41543,3298000,9264,CA,1375 Sacramento St,2820700,94109,2064129934,null
1,1,San Francisco,10,FOR_SALE,CONDO,https://photos.zillowstatic.com/fp/dfd429ddaeba326248ec9c2c938da2e5-p_e.jpg,null,{'is_FSBA': True},840,null,995000,null,CA,1624 Larkin St APT 10,null,94109,2056532715,Apt 10
1,1,San Francisco,11,FOR_SALE,CONDO,https://photos.zillowstatic.com/fp/d6e901bddc5b0f09454da4b280511def-p_e.jpg,37.789555,{'is_FSBA': True},673,-122.42328,980000,3599,CA,1688 Pine St #W1003,1011700,94109,241585674,# W1003
1,0,San Francisco,11,FOR_SALE,CONDO,https://photos.zillowstatic.com/fp/10efc9c3a35d6efa7af85f1823b63730-p_e.jpg,37.78524,{'is_FSBA': True},520,-122.41512,419000,1975,CA,631 Ofarrell St APT 1007,435700,94109,15069496,Apt 1007
2,2,San Francisco,-1,FOR_SALE,CONDO,https://photos.zillowstatic.com/fp/57fd687ad2c2ffa246d5759317e4b350-p_e.jpg,37.789555,"{'is_newHome': True, 'is_openHouse': True}",1150,-122.42328,1728000,5466,CA,1688 Pine St UNIT E1006,1779500,94109,241585814,Unit E1006
2,2,San Francisco,11,FOR_SALE,CONDO,https://photos.zillowstatic.com/fp/7b374faa22a1be06c723fdef4a695802-p_e.jpg,37.783913,{'is_FSBA': True},1054,-122.4224,999000,4229,CA,1000 Franklin St APT 401,869400,94109,2141884497,Apt 401
1,1,San Francisco,-1,FOR_SALE,CONDO,https://photos.zillowstatic.com/fp/432bdf986e7a8511fa76d92a2aa0bf9a-p_e.jpg,37.79158,"{'is_FSBA': True, 'is_openHouse': True}",0,-122.4189,625000,2299,CA,1492 Larkin St APT 1,null,94109,2094928884,Apt 1
2,2,San Francisco,-1,FOR_SALE,CONDO,https://photos.zillowstatic.com/fp/d2967c83fb3843bc1afc74550d423478-p_e.jpg,37.79158,"{'is_FSBA': True, 'is_openHouse': True}",0,-122.4189,995000,3325,CA,1492 Larkin St APT 2,null,94109,2094929498,Apt 2
0,null,San Francisco,12,FOR_SALE,MULTI_FAMILY,https://photos.zillowstatic.com/fp/d0804e01f420135fbe7c447521b9c999-p_e.jpg,null,{'is_FSBA': True},8740,null,2850000,2894,CA,946 Geary St,2946800,94109,2096335304,null
1,0,San Francisco,13,FOR_SALE,CONDO,https://photos.zillowstatic.com/fp/e077f89bb6f9b2f63ce8899fda35ffb2-p_e.jpg,37.791954,{'is_FSBA': True},308,-122.41612,405000,2250,CA,1155 Leavenworth St APT 18,443800,94109,2095530821,Apt 18
1,2,San Francisco,18,FOR_SALE,CONDO,https://photos.zillowstatic.com/fp/59fa84eaa0b9bf03ad51b645d06a2611-p_e.jpg,37.78772,{'is_FSBA': True},0,-122.4191,899000,null,CA,1080 Sutter St APT 1003,null,94109,123174799,Apt 1003
1,1,San Francisco,-1,FOR_SALE,CONDO,https://photos.zillowstatic.com/fp/5c6f00cf745bc02c4dd3e489d28910b8-p_e.jpg,37.79543,"{'is_FSBA': True, 'is_openHouse': True}",804,-122.41461,899000,3676,CA,1530 Jones St APT 5,935100,94109,2103271622,Apt 5
0,null,San Francisco,-1,FOR_SALE,LOT,https://photos.zillowstatic.com/fp/1598e355b7bb24cae62b6a51bf917f10-p_e.jpg,37.786858,{'is_FSBA': True},0,-122.41797,5100000,null,CA,989 Post St,null,94109,2056969093,null
1,2,San Francisco,25,FOR_SALE,CONDO,https://photos.zillowstatic.com/fp/b7a74edd54082f7c54826f207308dc3b-p_e.jpg,37.799873,{'is_FSBA': True},1140,-122.42284,1198000,4795,CA,2507 Polk St,1194500,94109,51082424,null
2,2,San Francisco,-1,FOR_SALE,CONDO,https://photos.zillowstatic.com/fp/85235bc6abdb33042db8561948323568-p_e.jpg,37.798233,{'is_FSBA': True},1849,-122.4174,2388000,8209,CA,1101 Green St #1101,2350100,94109,15066229,# 1101
3,3,San Francisco,27,FOR_SALE,CONDO,https://photos.zillowstatic.com/fp/3e02c68af45ce0190bef5dd4d927d618-p_e.jpg,37.789207,{'is_FSBA': True},2077,-122.42601,1995000,8577,CA,1830 Pine St,1968400,94109,119685835,null
3,3,San Francisco,-1,FOR_SALE,CONDO,https://photos.zillowstatic.com/fp/70507e0df39c03c8f353d3d0fd44a437-p_e.jpg,37.793537,{'is_FSBA': True},1985,-122.424,1995000,8724,CA,1755 Jackson St APT 303,1970800,94109,15073789,Apt 303
2,2,San Francisco,29,FOR_SALE,CONDO,https://photos.zillowstatic.com/fp/3fd07379aec928797f3e2d92aaf20b01-p_e.jpg,37.798233,{'is_FSBA': True},930,-122.4174,1099000,4250,CA,1101 Green St #402,1090300,94109,15066204,# 402
8,6,San Francisco,31,FOR_SALE,SINGLE_FAMILY,https://photos.zillowstatic.com/fp/2f3b814b538ec0df4fac7446d7421435-p_e.jpg,37.802258,{'is_FSBA': True},7930,-122.419876,9980000,32751,CA,2323 Hyde St,9447500,94109,15064576,null
1,1,San Francisco,32,FOR_SALE,CONDO,https://photos.zillowstatic.com/fp/a30e1c6abae7480fa43997782aba59fb-p_e.jpg,37.79052,{'is_FSBA': True},616,-122.41267,625000,3399,CA,1001 Pine St UNIT 209,606400,94109,15068810,Unit 209
2,3,San Francisco,-1,FOR_SALE,CONDO,https://photos.zillowstatic.com/fp/2c99d50b23f587a5ded5da2a6c5627fe-p_e.jpg,37.798115,{'is_FSBA': True},1472,-122.42288,1745000,7692,CA,1438 Green St UNIT 6D,1730300,94109,15072131,Unit 6D
1,0,San Francisco,-1,FOR_SALE,CONDO,https://photos.zillowstatic.com/fp/6ac7ae5a2faa0b54f93f943b5532124f-p_e.jpg,37.78524,{'is_FSBA': True},520,-122.41512,379000,2914,CA,631 Ofarrell St APT 1507,378200,94109,15069548,Apt 1507
2,2,San Francisco,37,FOR_SALE,CONDO,https://photos.zillowstatic.com/fp/d10ee4f6fd5c812de43880d098d0217a-p_e.jpg,37.786716,{'is_FSBA': True},1165,-122.4242,1149000,4592,CA,1483 Sutter St UNIT 714,1121600,94109,15076409,Unit 714
1,1,San Francisco,-1,FOR_SALE,CONDO,https://photos.zillowstatic.com/fp/651aa219d371e6deeba1582df30c1d8f-p_e.jpg,37.800755,"{'is_FSBA': True, 'is_openHouse': True}",900,-122.42356,1045000,null,CA,1450 Greenwich St APT 201,null,94109,15070982,Apt 201
1,1,San Francisco,39,FOR_SALE,CONDO,https://photos.zillowstatic.com/fp/b62245bd9d1c89950f1372b8a4fd19b7-p_e.jpg,37.787464,{'is_newHome': True},0,-122.420296,649000,3095,CA,1201 Sutter St #404,668400,94109,2057196228,# 404
1,0,San Francisco,-1,FOR_SALE,CONDO,https://photos.zillowstatic.com/fp/aa0ccc78198d5b442630193ca24a39d4-p_e.jpg,37.80057,{'is_FSBA': True},528,-122.42485,273594,2808,CA,2701 Van Ness Ave APT 206,273900,94109,15071013,Apt 206
1,1,San Francisco,39,FOR_SALE,CONDO,https://photos.zillowstatic.com/fp/5caa315fba4a4c9e2be7534347ef316e-p_e.jpg,37.789944,{'is_FSBA': True},631,-122.41273,500000,null,CA,900 Bush St APT 319,null,94109,15069015,Apt 319
3,8,San Francisco,40,FOR_SALE,MULTI_FAMILY,https://photos.zillowstatic.com/fp/43d554a1358a403e74ae3403df0e92ec-p_e.jpg,37.79146,{'is_FSBA': True},4830,-122.417496,3888000,12548,CA,1630-4 Hyde St,3938100,94109,2057210923,null
2,2,San Francisco,41,FOR_SALE,CONDO,https://photos.zillowstatic.com/fp/112e0a8bdada6914a94e3576f6f019f9-p_e.jpg,37.789944,{'is_FSBA': True},802,-122.41273,758000,3875,CA,900 Bush St APT 614,734600,94109,15069071,Apt 614
0,null,San Francisco,-1,FOR_SALE,MULTI_FAMILY,https://photos.zillowstatic.com/fp/251f1213242d907f3752112138db64ee-p_e.jpg,null,{'is_FSBA': True},7174,null,1800000,2909,CA,646 Ellis St,1803700,94109,2099389467,null
2,2,San Francisco,-1,FOR_SALE,CONDO,https://photos.zillowstatic.com/fp/adc39a844af84c1592617320ee01781a-p_e.jpg,37.802364,{'is_FSBA': True},1379,-122.42056,1475000,6999,CA,1150 Lombard St APT 24,null,94109,15064625,Apt 24
2,3,San Francisco,0,FOR_SALE,SINGLE_FAMILY,https://photos.zillowstatic.com/fp/023b4da52a1ec68cc3931c73e84727ac-p_e.jpg,37.736515,{'is_foreclosure': True},1330,-122.42557,2100000,5402,CA,30 Park St,null,94110,15184299,null
0,6,San Francisco,1,FOR_SALE,MULTI_FAMILY,https://photos.zillowstatic.com/fp/71f2578880e3630e6b49fc8c373a9c50-p_e.jpg,37.753113,{'is_FSBA': True},2970,-122.40772,1000000,3373,CA,2762-2764 24th St,1112700,94110,332861044,null
1,2,San Francisco,-1,FOR_SALE,SINGLE_FAMILY,https://photos.zillowstatic.com/fp/e2868ee242e0fd5315e1a1dbb1fa6527-p_e.jpg,37.73515,{'is_FSBA': True},900,-122.413216,1150000,3849,CA,656 Banks St,1293300,94110,15164077,null
null,null,San Francisco,4,FOR_SALE,MULTI_FAMILY,https://photos.zillowstatic.com/fp/40fea4a79204d05b4127ebc1015410df-p_e.jpg,37.7498,{'is_FSBA': True},2768,-122.410965,1474000,10258,CA,1378-1382 Alabama St,1631600,94110,332861198,null
1,2,San Francisco,-1,FOR_SALE,CONDO,https://photos.zillowstatic.com/fp/5ebc19557bed26558c1bda112d474f44-p_e.jpg,37.755478,"{'is_FSBA': True, 'is_openHouse': True}",0,-122.42214,899000,null,CA,3350 22nd St,null,94110,119684740,null
1,3,San Francisco,-1,FOR_SALE,CONDO,https://photos.zillowstatic.com/fp/e3d4d059ee0b18593df758b16bca0152-p_e.jpg,37.74888,"{'is_FSBA': True, 'is_openHouse': True}",0,-122.42419,1299000,4500,CA,3774 26th St,1255800,94110,2066485893,null
1,2,San Francisco,4,FOR_SALE,SINGLE_FAMILY,https://photos.zillowstatic.com/fp/5bcd468edec2d2b863d682fb9e810e69-p_e.jpg,37.73536,{'is_FSBA': True},0,-122.41445,1349000,3847,CA,642 Gates St,1487700,94110,15164133,null
null,null,San Francisco,4,FOR_SALE,LOT,https://photos.zillowstatic.com/fp/f01c1d0fc2bb3e231644594a7165829a-p_e.jpg,37.733154,{'is_FSBA': True},null,-122.41785,133000,3699,CA,132 Bache St,null,94110,125270977,null
3,2,San Francisco,-1,FOR_SALE,SINGLE_FAMILY,https://photos.zillowstatic.com/fp/af6a14567347499e8ab07ea4b12d0dbb-p_e.jpg,37.73826,"{'is_FSBA': True, 'is_openHouse': True}",0,-122.414185,1848000,2949,CA,400 Gates St,2007200,94110,15163231,null
2,2,San Francisco,-1,FOR_SALE,CONDO,https://photos.zillowstatic.com/fp/eee850a506b68546609b927c6c322e61-p_e.jpg,37.74768,"{'is_FSBA': True, 'is_openHouse': True}",889,-122.42505,995000,null,CA,1352 Dolores St,null,94110,83152976,null
2,2,San Francisco,-1,FOR_SALE,CONDO,https://photos.zillowstatic.com/fp/cf371a7debd40f34247b515e690fbe1a-p_e.jpg,37.748497,"{'is_FSBA': True, 'is_openHouse': True}",1056,-122.41866,1099000,null,CA,555 Bartlett St APT 404,null,94110,111711315,Apt 404
2,3,San Francisco,5,FOR_SALE,CONDO,https://photos.zillowstatic.com/fp/5851e5e0d088e793ea6a0b346951ebfc-p_e.jpg,37.759064,{'is_FSBA': True},1898,-122.40812,1395000,6199,CA,2705 20th St,1521200,94110,83127420,null
0,null,San Francisco,6,FOR_SALE,LOT,https://photos.zillowstatic.com/fp/faa401bbbbd7558cdeff4a5f62d81641-p_e.jpg,37.743423,{'is_FSBA': True},0,-122.4073,299000,4205,CA,1149 Esmeralda Ave,null,94110,125164255,null
1,2,San Francisco,-1,FOR_SALE,SINGLE_FAMILY,https://photos.zillowstatic.com/fp/542b45b07e9335e0ced3413d4083aaf9-p_e.jpg,37.73441,"{'is_FSBA': True, 'is_openHouse': True}",1280,-122.416405,995000,5400,CA,822 Moultrie St,1117500,94110,15164575,null
1,1,San Francisco,-1,FOR_SALE,CONDO,https://photos.zillowstatic.com/fp/b289141f6a9ac53147f883c20cfa505e-p_e.jpg,37.764355,"{'is_FSBA': True, 'is_openHouse': True}",718,-122.417854,639000,null,CA,550 S Van Ness Ave APT 202,null,94110,15143922,Apt 202
3,5,San Francisco,11,FOR_SALE,MULTI_FAMILY,https://photos.zillowstatic.com/fp/fb8aedbd282d738b5487ec779cd58a95-p_e.jpg,37.764965,{'is_FSBA': True},3217,-122.410736,1495000,11696,CA,1728 Bryant St,1539700,94110,241586889,null
1,3,San Francisco,12,FOR_SALE,SINGLE_FAMILY,https://photos.zillowstatic.com/fp/961954a6261a5cab8282f7028e4a1224-p_e.jpg,37.74068,{'is_FSBA': True},1406,-122.41684,1495000,3927,CA,79 Wool St,1588800,94110,15161832,null
1,2,San Francisco,12,FOR_SALE,CONDO,https://photos.zillowstatic.com/fp/a8baba87b16c71071410b701b2891cc9-p_e.jpg,null,{'is_FSBA': True},1235,null,1195000,null,CA,3322 A 22nd St,null,94110,2056564840,null
3,6,San Francisco,-1,FOR_SALE,SINGLE_FAMILY,https://photos.zillowstatic.com/fp/e28654d99a931cf24c92063f3e543220-p_e.jpg,37.742092,{'is_FSBA': True},3690,-122.42395,2500000,2502,CA,1703 Dolores St,2696600,94110,2083593783,null
3,4,San Francisco,14,FOR_SALE,SINGLE_FAMILY,https://photos.zillowstatic.com/fp/60e66dd752f4f55ca8674cf43cd0bca7-p_e.jpg,null,{'is_foreclosure': True},3128,null,1999999,null,CA,120-112 Putnam St,null,94110,2056585908,null
1,2,San Francisco,17,FOR_SALE,CONDO,https://photos.zillowstatic.com/fp/2b2675ba2db112b611d46510b441cef2-p_e.jpg,37.747456,{'is_FSBA': True},1072,-122.4221,1029000,4603,CA,1487 Guerrero St,1129500,94110,184816996,null
1,1,San Francisco,18,FOR_SALE,CONDO,https://photos.zillowstatic.com/fp/b5eacf6a87aace3486c1090520676642-p_e.jpg,37.75393,{'is_FSBA': True},0,-122.42118,1060000,3384,CA,1188 Valencia St APT 307,1106700,94110,303806874,Apt 307
4,4,San Francisco,20,FOR_SALE,SINGLE_FAMILY,https://photos.zillowstatic.com/fp/4cb09833453e3dc662441d3a2f4e1e0d-p_e.jpg,37.754635,{'is_bankOwned': True},1856,-122.40885,1095000,6922,CA,2816 23rd St,1095200,94110,15151325,null
4,8,San Francisco,20,FOR_SALE,MULTI_FAMILY,https://photos.zillowstatic.com/fp/3d3e3cfe9afb3e12b611f59d12ce801a-p_e.jpg,37.752934,{'is_FSBA': True},3020,-122.41222,1499000,11978,CA,2782 Harrison St,1620100,94110,2091530981,null
1,2,San Francisco,-1,FOR_SALE,CONDO,https://photos.zillowstatic.com/fp/81a57044721e69915e02e66fa6ab412b-p_e.jpg,37.74584,{'is_FSBA': True},843,-122.41919,865000,4054,CA,16 Powers Ave #B,992200,94110,2075614167,# B
4,3,San Francisco,-1,FOR_SALE,SINGLE_FAMILY,https://photos.zillowstatic.com/fp/923b6b660de5e7384fb69f3c0837391e-p_e.jpg,37.743637,"{'is_newHome': True, 'is_openHouse': True}",2210,-122.40662,1899888,6832,CA,5 Joy St,1872900,94110,125244122,null
2,1,San Francisco,-1,FOR_SALE,CONDO,https://photos.zillowstatic.com/fp/b79ea6899bee63dffb3c12f37e129664-p_e.jpg,37.760098,{'is_FSBA': True},1120,-122.41238,779000,4552,CA,2301 Harrison St SUITE 304,789300,94110,80737574,Suite 304
0,null,San Francisco,29,FOR_SALE,LOT,https://photos.zillowstatic.com/fp/b0e38994680a5dddad73d422854c0451-p_e.jpg,37.74301,{'is_FSBA': True},0,-122.41874,750000,null,CA,139 Prospect Ave,null,94110,2057082824,null
3,3,San Francisco,31,FOR_SALE,CONDO,https://photos.zillowstatic.com/fp/7737066beae218c4a704dbc5ff24596b-p_e.jpg,37.751934,{'is_FSBA': True},2030,-122.40838,1975000,6321,CA,1258 York St,2157800,94110,125244159,null
2,2,San Francisco,31,FOR_SALE,CONDO,https://photos.zillowstatic.com/fp/aa7f86bc441a450ea6e0dd688f85de98-p_e.jpg,37.750946,{'is_FSBA': True},1380,-122.420845,1395000,6000,CA,1370 Valencia St APT 5,1392600,94110,79843487,Apt 5
0,null,San Francisco,31,FOR_SALE,MULTI_FAMILY,https://photos.zillowstatic.com/fp/94c9a2a9b49cd2d65c57286e7b4ce453-p_e.jpg,null,{'is_FSBA': True},7034,null,2250000,2774,CA,251 San Jose Ave,2440200,94110,2057103357,null
3,3,San Francisco,32,FOR_SALE,MULTI_FAMILY,https://photos.zillowstatic.com/fp/b843d7859d0b637a8f31def2ac36a030-p_e.jpg,37.75425,{'is_FSBA': True},2250,-122.40369,1590000,8277,CA,2401 23rd St,1623600,94110,332861071,null
2,2,San Francisco,32,FOR_SALE,CONDO,https://photos.zillowstatic.com/fp/543744396e5a1b7b153d06f761ae85f1-p_e.jpg,37.763992,{'is_newHome': True},932,-122.417816,849950,3999,CA,566 S Van Ness Ave APT 14,912400,94110,83152693,Apt 14
null,null,San Francisco,-1,FOR_SALE,MULTI_FAMILY,https://photos.zillowstatic.com/fp/a415ad2626c251fe88a398bb445644f6-p_e.jpg,37.745735,{'is_FSBA': True},2200,-122.42362,1649000,3556,CA,66 28th St,2071700,94110,2057115135,null
0,null,San Francisco,33,FOR_SALE,LOT,https://photos.zillowstatic.com/fp/eed35b7f14db7f7f12c28d9bf3d58d4c-p_e.jpg,37.75646,{'is_FSBA': True},0,-122.41807,1799000,4307,CA,636 Capp St,null,94110,125309013,null
2,2,San Francisco,34,FOR_SALE,CONDO,https://photos.zillowstatic.com/fp/67a5d239c6a140600a56226e66596dd6-p_e.jpg,37.7609,{'is_FSBA': True},1236,-122.420944,1295000,4162,CA,150 Lexington St #3,1288800,94110,50894954,# 3
3,2,San Francisco,-1,FOR_SALE,CONDO,https://photos.zillowstatic.com/fp/0718279f153bc2562c3ea92fdab475d3-p_e.jpg,37.758827,"{'is_FSBA': True, 'is_openHouse': True}",2290,-122.41196,1635000,9222,CA,3121 20th St APT 3,1616700,94110,80754020,Apt 3
2,2,San Francisco,-1,FOR_SALE,SINGLE_FAMILY,https://photos.zillowstatic.com/fp/972d6416b299587e5128c04e41b807e9-p_e.jpg,37.761448,{'is_FSBA': True},1151,-122.41988,895000,4726,CA,119 San Carlos St,891200,94110,15144724,null
null,null,San Francisco,38,FOR_SALE,MULTI_FAMILY,https://photos.zillowstatic.com/fp/91bbfbc68d5d04859cbc33a33a1cdbe7-p_e.jpg,37.756153,{'is_FSBA': True},2000,-122.40968,1299000,5925,CA,2392-2394 Bryant St,1409100,94110,332860849,null
3,4,San Francisco,-1,FOR_SALE,CONDO,https://photos.zillowstatic.com/fp/5b207a208d8e4282575e7b024fa1a9d0-p_e.jpg,37.75874,"{'is_FSBA': True, 'is_openHouse': True}",1417,-122.41503,1149000,5848,CA,3305 20th St,1360700,94110,2057203701,null
null,5,San Francisco,39,FOR_SALE,MULTI_FAMILY,https://photos.zillowstatic.com/fp/3b4cd0727c8f2d488324e6e6b66d9072-p_e.jpg,37.75234,{'is_FSBA': True},2068,-122.42433,1699999,6640,CA,268-272 Fair Oaks St,1678600,94110,331644677,null
3,3,San Francisco,20,FOR_SALE,CONDO,https://photos.zillowstatic.com/fp/afaa45fffea516dbe6e32efc751520ba-p_e.jpg,37.797626,{'is_FSBA': True},2251,-122.39779,2750000,9366,CA,550 Davis St UNIT 26,2679200,94111,15067271,Unit 26
2,2,San Francisco,25,FOR_SALE,CONDO,https://photos.zillowstatic.com/fp/172085523d02118651c622db26c850ec-p_e.jpg,37.803467,{'is_FSBA': True},1712,-122.404076,1795000,null,CA,101 Lombard St APT 109W,null,94111,15064905,Apt 109W
1,1,San Francisco,28,FOR_SALE,CONDO,https://photos.zillowstatic.com/fp/4d6c6d563fdae8d8f9614b29c6cfd3a8-p_e.jpg,37.804363,{'is_FSBA': True},654,-122.40559,669500,3499,CA,220 Lombard St APT 618,665800,94111,15064094,Apt 618
1,1,San Francisco,32,FOR_SALE,CONDO,https://photos.zillowstatic.com/fp/b1c78e641528451f2bfe100a5966aa1f-p_e.jpg,37.80424,{'is_FSBA': True},580,-122.4055,615000,2999,CA,240 Lombard St APT 529,602500,94111,15064154,Apt 529
1,1,San Francisco,-1,FOR_SALE,CONDO,https://photos.zillowstatic.com/fp/675ce1dd7c927b8a92c8b72a62c928b7-p_e.jpg,37.803467,{'is_FSBA': True},800,-122.404076,799000,3758,CA,101 Lombard St APT 18E,786500,94111,2076944321,Apt 18E
2,2,San Francisco,47,FOR_SALE,CONDO,https://photos.zillowstatic.com/fp/8c88dea814be6d6a08bbda6025893936-p_e.jpg,37.803467,{'is_FSBA': True},1368,-122.404076,1575000,6816,CA,101 Lombard St APT 601W,1525400,94111,15064966,Apt 601W
3,2,San Francisco,-1,FOR_SALE,CONDO,https://photos.zillowstatic.com/fp/0f8a727f334de88221548c664c112e6b-p_e.jpg,37.795235,{'is_FSBA': True},2030,-122.4036,2495000,8795,CA,611 Washington St #2104,2375900,94111,15067549,# 2104
1,0,San Francisco,73,FOR_SALE,CONDO,https://photos.zillowstatic.com/fp/014f995c132936fff92ccb685ff7d100-p_e.jpg,37.80424,{'is_FSBA': True},494,-122.4055,545000,2570,CA,240 Lombard St APT 235,531100,94111,15064115,Apt 235
2,2,San Francisco,160,FOR_SALE,CONDO,https://photos.zillowstatic.com/fp/689ba6e5bf09bac31763506ba6b608c5-p_e.jpg,37.797874,{'is_newHome': True},1179,-122.40047,1995000,5073,CA,288 Pacific Ave #5D,1874100,94111,303806968,# 5D
0,null,San Francisco,160,FOR_SALE,LOT,https://photos.zillowstatic.com/fp/899335a883656cec4395fb61d74f0f1e-p_e.jpg,37.80068,{'is_FSBA': True},0,-122.40312,3000000,3749,CA,1111 Sansome St,null,94111,184663712,null
1,1,San Francisco,-1,FOR_SALE,CONDO,https://photos.zillowstatic.com/fp/5ad0f664357197c5f4c83eac8c8a32b0-p_e.jpg,37.79791,{'is_FSBA': True},0,-122.40052,885000,2829,CA,288 Pacific Ave #2E,856500,94111,303806993,# 2E
1,1,San Francisco,-1,FOR_SALE,CONDO,https://photos.zillowstatic.com/fp/f1581be0f1c2bbe5251a5291defd03b0-p_e.jpg,37.80453,{'is_FSBA': True},888,-122.40555,798000,3927,CA,111 Chestnut St UNIT 206,750000,94111,15064235,Unit 206
2,2,San Francisco,0,FOR_SALE,SINGLE_FAMILY,https://photos.zillowstatic.com/fp/a120e900f255bcb4831cc987fe2b55fa-p_e.jpg,37.717453,{'is_FSBA': True},2040,-122.44003,999888,null,CA,5063 Mission St,null,94112,2056412748,null
0,null,San Francisco,3,FOR_SALE,LOT,https://photos.zillowstatic.com/fp/7ba6b2ae259e0b0861e15698ab2b56cd-p_e.jpg,37.7136,{'is_FSBA': True},0,-122.44151,525000,3850,CA,31 Cross St,null,94112,125272081,null
1,2,San Francisco,-1,FOR_SALE,SINGLE_FAMILY,https://photos.zillowstatic.com/fp/78eef8efaa9d4bc2d785c84222bb08ab-p_e.jpg,37.73003,"{'is_FSBA': True, 'is_openHouse': True}",862,-122.42297,799000,3200,CA,357 Maynard St,915100,94112,15166051,null
2,4,San Francisco,4,FOR_SALE,SINGLE_FAMILY,https://photos.zillowstatic.com/fp/743daa3f7659fc194f1d422fc128e82d-p_e.jpg,37.717083,{'is_FSBA': True},1944,-122.4443,1575000,5200,CA,31 Rome St,1700400,94112,15191408,null
3,5,San Francisco,-1,FOR_SALE,MULTI_FAMILY,https://photos.zillowstatic.com/fp/105d223f62dd438d9c2688d489569e9e-p_e.jpg,37.724438,"{'is_FSBA': True, 'is_openHouse': True}",3052,-122.43375,1600000,6499,CA,285 London St,1760100,94112,2098645310,null
5,5,San Francisco,-1,FOR_SALE,SINGLE_FAMILY,https://photos.zillowstatic.com/fp/269e2c28a227034fcea9b19477eab844-p_e.jpg,37.72879,"{'is_FSBA': True, 'is_openHouse': True}",2510,-122.427666,1700000,7278,CA,423 Silver Ave,1946800,94112,15166273,null
1,2,San Francisco,5,FOR_SALE,SINGLE_FAMILY,https://photos.zillowstatic.com/fp/42259daa4ead2d92a96880dcf877b015-p_e.jpg,37.71062,{'is_FSBA': True},0,-122.449165,699000,2028,CA,556 Ellington Ave,789800,94112,15194148,null
0,null,San Francisco,5,FOR_SALE,LOT,https://photos.zillowstatic.com/fp/bad41dd8b85f3d369cfc4f7424409c0a-p_e.jpg,37.71683,{'is_FSBA': True},0,-122.42887,1500000,null,CA,44-46 Prague St,null,94112,2056468518,null
3,2,San Francisco,-1,FOR_SALE,SINGLE_FAMILY,https://photos.zillowstatic.com/fp/d680292e883d327020aebfba1fc6b8a2-p_e.jpg,37.72284,"{'is_FSBA': True, 'is_openHouse': True}",1387,-122.44109,1098000,3750,CA,190 Onondaga Ave,1258000,94112,15188206,null
2,3,San Francisco,-1,FOR_SALE,SINGLE_FAMILY,https://photos.zillowstatic.com/fp/d97506f22ffa63516337d41482dac422-p_e.jpg,37.713554,"{'is_FSBA': True, 'is_openHouse': True}",1656,-122.44128,1149000,3900,CA,116 Pope St,1306700,94112,15178706,null
2,3,San Francisco,-1,FOR_SALE,SINGLE_FAMILY,https://photos.zillowstatic.com/fp/566f037ec2683574646d0c5113f9a822-p_e.jpg,37.717014,{'is_FSBA': True},925,-122.429405,1420000,3573,CA,539 Munich St,1625600,94112,15174988,null
3,3,San Francisco,6,FOR_SALE,SINGLE_FAMILY,https://photos.zillowstatic.com/fp/45b890ccfbf8057d6efe42903732c5e3-p_e.jpg,37.711906,{'is_FSBA': True},0,-122.43232,899000,4749,CA,635 Prague St,1027900,94112,111921659,null
2,0,San Francisco,6,FOR_SALE,SINGLE_FAMILY,https://photos.zillowstatic.com/fp/b2ab73c4d6c5acbbd498100a0c439201-p_e.jpg,37.718754,{'is_FSBA': True},1644,-122.453766,1149000,3310,CA,26 Lee Ave,1315900,94112,15190880,null
2,3,San Francisco,-1,FOR_SALE,SINGLE_FAMILY,https://photos.zillowstatic.com/fp/e9d2c7d297ed16b5ef5b8afcafe75be5-p_e.jpg,37.729633,{'is_FSBA': True},1455,-122.453575,1495000,4711,CA,593 Flood Ave,1683300,94112,15139639,null
2,3,San Francisco,8,FOR_SALE,SINGLE_FAMILY,https://photos.zillowstatic.com/fp/8a1f1d85da6445a27aad66cc8304ece4-p_e.jpg,37.729618,{'is_FSBA': True},1630,-122.45197,1250000,3849,CA,537 Flood Ave,1388100,94112,15139667,null
2,2,San Francisco,-1,FOR_SALE,SINGLE_FAMILY,https://photos.zillowstatic.com/fp/3e3c1e1df17cece0e670c8bb154f2c46-p_e.jpg,37.73038,"{'is_FSBA': True, 'is_openHouse': True}",1649,-122.43063,1295000,3854,CA,40 Admiral Ave,1484500,94112,15186949,null
3,3,San Francisco,10,FOR_SALE,SINGLE_FAMILY,https://photos.zillowstatic.com/fp/8595b94b8f5365a7f3c2fd138b5b6717-p_e.jpg,37.71379,{'is_bankOwned': True},1693,-122.46014,1100000,4500,CA,225 Farallones St,null,94112,15194502,null
3,5,San Francisco,-1,FOR_SALE,SINGLE_FAMILY,https://photos.zillowstatic.com/fp/33fdc9a7eda3743fc5c3ae5585efc03d-p_e.jpg,37.724674,{'is_FSBA': True},2449,-122.430885,1495000,6000,CA,320 Excelsior Ave,1608600,94112,15169605,null
2,4,San Francisco,11,FOR_SALE,SINGLE_FAMILY,https://photos.zillowstatic.com/fp/ed2a914dfaedc6a5bc387e67b6f9be48-p_e.jpg,37.708805,{'is_FSBA': True},1558,-122.46596,998000,2949,CA,58 Santa Cruz Ave,1129500,94112,15196301,null
1,3,San Francisco,-1,FOR_SALE,SINGLE_FAMILY,https://photos.zillowstatic.com/fp/591e7cac8b963c973aa8af411eb8b7b4-p_e.jpg,37.730145,{'is_FSBA': True},1355,-122.445045,999000,4994,CA,230 Flood Ave,1142000,94112,15139392,null
4,4,San Francisco,11,FOR_SALE,SINGLE_FAMILY,https://photos.zillowstatic.com/fp/cb2a95afa52abf9c90bd81365cd406d3-p_e.jpg,37.718437,{'is_FSBA': True},2490,-122.45774,1688000,6351,CA,652 Lakeview Ave,1904900,94112,123597121,null
1,2,San Francisco,12,FOR_SALE,SINGLE_FAMILY,https://photos.zillowstatic.com/fp/9bd2fc2ed5d53225d5ce5020dd8aff0d-p_e.jpg,37.729404,{'is_FSBA': True},862,-122.42166,949000,null,CA,96 Stoneyford Ave,null,94112,15165974,null
1,3,San Francisco,13,FOR_SALE,SINGLE_FAMILY,https://photos.zillowstatic.com/fp/49978e5d2d9d6d521c116707f8926910-p_e.jpg,37.72694,{'is_FSBA': True},1190,-122.43782,1500000,4300,CA,273 Capistrano Ave,1678200,94112,15139963,null
2,3,San Francisco,-1,FOR_SALE,SINGLE_FAMILY,https://photos.zillowstatic.com/fp/2abf4066fdb871eb5a8b2b32765d0f34-p_e.jpg,37.727318,{'is_FSBA': True},1354,-122.42656,1179000,4500,CA,90 Naples St,1314500,94112,15167788,null
2,3,San Francisco,16,FOR_SALE,SINGLE_FAMILY,https://photos.zillowstatic.com/fp/c7e5efcfdb3bd7c013719a23a217fbee-p_e.jpg,37.709614,{'is_FSBA': True},1625,-122.42958,1100000,3824,CA,50 Lapham Way,1231500,94112,15177573,null
null,null,San Francisco,17,FOR_SALE,MULTI_FAMILY,https://photos.zillowstatic.com/fp/ad6a1a7f66b2db26b142fa606db6a87a-p_e.jpg,37.717724,{'is_FSBA': True},2005,-122.43575,998000,null,CA,115 & 117 Madrid St,null,94112,2056799722,null
3,3,San Francisco,24,FOR_SALE,SINGLE_FAMILY,https://photos.zillowstatic.com/fp/cc80b1fbf1196255cde8e6e566251b6c-p_e.jpg,37.730404,{'is_FSBA': True},1878,-122.459755,1895000,5600,CA,955 Faxon Ave,1961100,94112,15138968,null
2,3,San Francisco,-1,FOR_SALE,SINGLE_FAMILY,https://photos.zillowstatic.com/fp/0ea17580bbaa65a2c3c1a32afc02a3d2-p_e.jpg,37.718987,"{'is_FSBA': True, 'is_openHouse': True}",1850,-122.43554,1475000,null,CA,587 Lisbon St,null,94112,15174640,null
3,4,San Francisco,-1,FOR_SALE,SINGLE_FAMILY,https://photos.zillowstatic.com/fp/de5bc63a9e25584757aba5ecd0c7cfed-p_e.jpg,37.719753,{'is_FSBA': True},1633,-122.43497,1350000,null,CA,537 Lisbon St,null,94112,15174653,null
2,3,San Francisco,33,FOR_SALE,SINGLE_FAMILY,https://photos.zillowstatic.com/fp/cc04ef06dcad6d778b4099f00cc79451-p_e.jpg,37.71938,{'is_FSBA': True},1420,-122.43043,824428,4500,CA,550-552 Athens St,null,94112,2057123888,null
1,2,San Francisco,39,FOR_SALE,SINGLE_FAMILY,https://photos.zillowstatic.com/fp/b64d2ab1ef3248ac9e6fa24d7b85c9a4-p_e.jpg,37.724964,{'is_FSBA': True},750,-122.423515,999000,3128,CA,976 Avalon Ave,1014700,94112,15168177,null
2,3,San Francisco,40,FOR_SALE,SINGLE_FAMILY,https://photos.zillowstatic.com/fp/1f8ad45ea4d23a99d8419199933a9d8e-p_e.jpg,37.71363,{'is_FSBA': True},2490,-122.4394,1495000,null,CA,71 Curtis St,null,94112,15178629,null
2,4,San Francisco,-1,FOR_SALE,SINGLE_FAMILY,https://photos.zillowstatic.com/fp/4c75f0af6492424d5a8c80446497a52f-p_e.jpg,37.717396,"{'is_FSBA': True, 'is_openHouse': True}",1164,-122.42761,1100000,4250,CA,182 Dublin St,1114000,94112,15171481,null
4,7,San Francisco,45,FOR_SALE,SINGLE_FAMILY,https://photos.zillowstatic.com/fp/102f98694da7b15f2b35a6443e5bb174-p_e.jpg,37.70904,{'is_newHome': True},2648,-122.46502,1788000,null,CA,10 Santa Barbara Ave,null,94112,15196294,null
4,5,San Francisco,46,FOR_SALE,MULTI_FAMILY,https://photos.zillowstatic.com/fp/09ead48bf48e99b7fbac4dee12eb52dd-p_e.jpg,37.7225,{'is_bankOwned': True},3450,-122.43612,1200000,8257,CA,4731 Mission St,null,94112,2057353720,null
1,1,San Francisco,-1,FOR_SALE,CONDO,https://photos.zillowstatic.com/fp/8fb4584659d126bef0401052dd76eae0-p_e.jpg,37.708813,{'is_FSBA': True},722,-122.45142,487000,2210,CA,5853 Mission St APT 6,480700,94112,15178881,Apt 6
1,2,San Francisco,-1,FOR_SALE,SINGLE_FAMILY,https://photos.zillowstatic.com/fp/4818de19889cb1484f57a3203feb3def-p_e.jpg,37.728176,{'is_FSBA': True},1226,-122.42834,1125000,null,CA,125 Peru Ave,null,94112,15167845,null
1,2,San Francisco,52,FOR_SALE,SINGLE_FAMILY,https://photos.zillowstatic.com/fp/a62959514ea99bfcbb556f4100fc2254-p_e.jpg,37.730965,{'is_FSBA': True},1490,-122.44685,1359000,3900,CA,515 Edna St,1334600,94112,15139196,null
2,2,San Francisco,53,FOR_SALE,MULTI_FAMILY,https://photos.zillowstatic.com/fp/4b768af6c9891f24232f5f03752ed8ea-p_e.jpg,37.713936,{'is_FSBA': True},2200,-122.44369,898000,4500,CA,5376 Mission St #5378,891000,94112,241587690,# 5378
2,3,San Francisco,53,FOR_SALE,SINGLE_FAMILY,https://photos.zillowstatic.com/fp/5914dd726103c5085c81f9d4dafce935-p_e.jpg,37.72778,{'is_forAuction': True},1745,-122.428444,1049900,4950,CA,106 Madrid St,1373000,94112,15167857,null
0,null,San Francisco,53,FOR_SALE,MULTI_FAMILY,https://photos.zillowstatic.com/fp/e033cbee6ef5d6fffe14fdf26c59dc9b-p_e.jpg,37.714157,{'is_FSBA': True},3486,-122.443474,1150000,1800,CA,5352 Mission St #5354,1141300,94112,241587686,# 5354
2,2,San Francisco,-1,FOR_SALE,CONDO,https://photos.zillowstatic.com/fp/3a54759c956b9ac6964fd5b8d6a51697-p_e.jpg,37.75191,{'is_forAuction': True},780,-122.4279,950000,3834,CA,3814 24th St SUITE 202,1064500,94114,15147127,Suite 202
1,2,San Francisco,-1,FOR_SALE,CONDO,https://photos.zillowstatic.com/fp/1abda4d597f12bb795c11b8e85f5b085-p_e.jpg,37.766045,"{'is_FSBA': True, 'is_openHouse': True}",1094,-122.43436,1500000,null,CA,2250 15th St,null,94114,96033720,null
0,null,San Francisco,4,FOR_SALE,MULTI_FAMILY,https://photos.zillowstatic.com/fp/2650252085e54a6ea4d8362100b4d7ce-p_e.jpg,null,{'is_FSBA': True},6570,null,2395000,10010,CA,211-219 Sanchez St,3287300,94114,2068563619,null
0,2,San Francisco,7,FOR_SALE,MULTI_FAMILY,https://photos.zillowstatic.com/fp/9c4911113abed41efc85beb7a6c38c45-p_e.jpg,37.75943,{'is_FSBA': True},4375,-122.434555,2450000,null,CA,597 Castro St,null,94114,2056490791,null
3,3,San Francisco,-1,FOR_SALE,CONDO,https://photos.zillowstatic.com/fp/2ca0691f165109dfc8076a827c4fdd44-p_e.jpg,37.765476,{'is_newHome': True},1840,-122.43204,3395000,null,CA,2238 Market St #501,null,94114,2056523404,# 501
7,5,San Francisco,10,FOR_SALE,SINGLE_FAMILY,https://photos.zillowstatic.com/fp/aaee7827fec629c5aa2193d6575a1122-p_e.jpg,37.755833,{'is_FSBA': True},0,-122.42945,9900000,null,CA,376 Hill St,null,94114,15146183,null
3,3,San Francisco,11,FOR_SALE,SINGLE_FAMILY,https://photos.zillowstatic.com/fp/447b3451152575a6f57678450b7a7f2d-p_e.jpg,37.762276,{'is_FSBA': True},1544,-122.44479,1398000,4603,CA,575 Roosevelt Way,1554000,94114,15128118,null
1,2,San Francisco,-1,FOR_SALE,CONDO,https://photos.zillowstatic.com/fp/af0a91463e5bc008ce56f273978cbf00-p_e.jpg,37.74896,"{'is_FSBA': True, 'is_openHouse': True}",0,-122.43687,1149000,4157,CA,532 Clipper St LOT B,1252300,94114,2093801822,Lot B
1,2,San Francisco,-1,FOR_SALE,CONDO,https://photos.zillowstatic.com/fp/4bc7d82e8a5601b7ff8b56cfc4c8cc0e-p_e.jpg,37.750614,"{'is_FSBA': True, 'is_openHouse': True}",950,-122.44227,1095000,4099,CA,4475 24th St APT 1,1190300,94114,15179952,Apt 1
4,5,San Francisco,12,FOR_SALE,SINGLE_FAMILY,https://photos.zillowstatic.com/fp/004f1aa95f147e856b286bd8b148ba2e-p_e.jpg,37.748585,{'is_FSBA': True},2327,-122.43492,2195000,6138,CA,445 Clipper St,2424600,94114,15181539,null
2,3,San Francisco,12,FOR_SALE,MULTI_FAMILY,https://photos.zillowstatic.com/fp/e6b2b43a5bc50f1b40b88f88e5f6199a-p_e.jpg,37.762856,{'is_FSBA': True},3149,-122.43259,2250000,null,CA,3886 17th St,null,94114,2056564841,null
2,2,San Francisco,-1,FOR_SALE,CONDO,https://photos.zillowstatic.com/fp/ad0f3424a3733765b145fa83701d2a07-p_e.jpg,37.76097,"{'is_FSBA': True, 'is_openHouse': True}",1563,-122.42955,1595000,6000,CA,3857 18th St,1737800,94114,79843676,null
2,3,San Francisco,-1,FOR_SALE,CONDO,https://photos.zillowstatic.com/fp/52f21068b53f58c8e10e55b9bce1204c-p_e.jpg,37.754864,{'is_FSBA': True},2236,-122.43586,3950000,13815,CA,470 Collingwood St APT 9,4205200,94114,2060418336,Apt 9
4,5,San Francisco,22,FOR_SALE,MULTI_FAMILY,https://photos.zillowstatic.com/fp/8ef9ae2ee05b8eefa8ab2ea0e2c1a9c5-p_e.jpg,37.766815,{'is_FSBA': True},4287,-122.43477,2350000,14056,CA,164-166 Henry St,2355000,94114,332858941,null
0,2,San Francisco,24,FOR_SALE,MULTI_FAMILY,https://photos.zillowstatic.com/fp/ed8f710737447b8e648cc6932a18c735-p_e.jpg,37.75122,{'is_FSBA': True},2650,-122.43122,1850000,4340,CA,3975 24th St,2030700,94114,2056977249,null
1,1,San Francisco,-1,FOR_SALE,CONDO,https://photos.zillowstatic.com/fp/cfd9a370524adfc0cac49c752cff0257-p_e.jpg,37.76506,{'is_FSBA': True},780,-122.42908,875000,null,CA,350 Church St APT F,null,94114,2056995040,Apt F
4,2,San Francisco,-1,FOR_SALE,MULTI_FAMILY,https://photos.zillowstatic.com/fp/3cd994e7b13a2143cc443cf75caf2b50-p_e.jpg,37.762356,"{'is_FSBA': True, 'is_openHouse': True}",2615,-122.44444,1395000,9847,CA,173-175 Saturn St,1402600,94114,331644598,null
3,4,San Francisco,29,FOR_SALE,MULTI_FAMILY,https://photos.zillowstatic.com/fp/80894f6ec11f18637699d6b9345b9099-p_e.jpg,37.76421,{'is_FSBA': True},2525,-122.44275,2250000,8681,CA,427-429 Roosevelt Way,2242200,94114,332858189,null
0,null,San Francisco,29,FOR_SALE,LOT,https://photos.zillowstatic.com/fp/74866210e5b474e4c4e85b0d2d297bb2-p_e.jpg,null,{'is_FSBA': True},0,null,2250000,null,CA,412 Roosevelt Way,null,94114,2057084595,null
1,1,San Francisco,31,FOR_SALE,CONDO,https://photos.zillowstatic.com/fp/878449ed6e4d94c7512e1d866e984fd1-p_e.jpg,37.761307,{'is_FSBA': True},1028,-122.43585,995000,4111,CA,77 A Collingwood St,1102500,94114,2057279150,null
1,4,San Francisco,-1,FOR_SALE,SINGLE_FAMILY,https://photos.zillowstatic.com/fp/cc44880034f50e0c042ec7209f5da250-p_e.jpg,37.759396,{'is_FSBA': True},1660,-122.438385,1695000,null,CA,182 Eureka St,null,94114,15129228,null
2,3,San Francisco,-1,FOR_SALE,SINGLE_FAMILY,https://photos.zillowstatic.com/fp/633eb82b3a5a2d54d03d3372400886bd-p_e.jpg,37.76377,{'is_FSBA': True},1400,-122.42702,1949000,6199,CA,17 Chula Ln,2109100,94114,2067555915,null
5,4,San Francisco,39,FOR_SALE,SINGLE_FAMILY,https://photos.zillowstatic.com/fp/180e33f53359853502a17791626d3171-p_e.jpg,37.760532,{'is_FSBA': True},3132,-122.446556,4550000,15268,CA,1 Twin Peaks Blvd,4380000,94114,15128618,null
1,3,San Francisco,40,FOR_SALE,CONDO,https://photos.zillowstatic.com/fp/b95b270a4fcb34ae069a28ea7e5cb6dc-p_e.jpg,37.750664,{'is_FSBA': True},1505,-122.440384,1450000,null,CA,4395 24th St,null,94114,2087572483,null
null,null,San Francisco,41,FOR_SALE,LOT,https://photos.zillowstatic.com/fp/ef6bf03f711dd2f844fccb36d3703054-p_e.jpg,37.75726,{'is_FSBA': True},5810,-122.45074,1990000,3315,CA,100 Glenbrook Ave,null,94114,125309390,null
1,1,San Francisco,-1,FOR_SALE,CONDO,https://photos.zillowstatic.com/fp/299eedacb1d31bc1f05b9dc6dba8501c-p_e.jpg,37.756413,{'is_FSBA': True},673,-122.44318,695000,null,CA,655 Corbett Ave APT 503,null,94114,15129935,Apt 503
3,2,San Francisco,51,FOR_SALE,CONDO,https://photos.zillowstatic.com/fp/662d6329c63fc33e088e61007d99e99c-p_e.jpg,37.752308,{'is_FSBA': True},2114,-122.42603,1740000,8030,CA,267A Chattanooga St,1881100,94114,2057454042,null
2,2,San Francisco,-1,FOR_SALE,CONDO,https://photos.zillowstatic.com/fp/cc7931bf154289541750b36a5bd48465-p_e.jpg,37.760323,{'is_FSBA': True},1243,-122.44009,1248000,5400,CA,4529 18th St,1229300,94114,15129207,null
2,3,San Francisco,58,FOR_SALE,CONDO,https://photos.zillowstatic.com/fp/9879eac3f50e29b87cf3228a8631e777-p_e.jpg,37.762463,{'is_FSBA': True},0,-122.44287,1549000,6199,CA,95 Saturn St,1664800,94114,2062764585,null
1,2,San Francisco,59,FOR_SALE,CONDO,https://photos.zillowstatic.com/fp/2f85306705d8bc5aeddf77b567bcc277-p_e.jpg,null,{'is_FSBA': True},1040,null,935000,4900,CA,269 Chattanooga St,1017500,94114,2094155425,null
1,3,San Francisco,-1,FOR_SALE,CONDO,https://photos.zillowstatic.com/fp/2f86eb138247c7dbff30c3e85240dd83-p_e.jpg,37.760876,"{'is_FSBA': True, 'is_openHouse': True}",1260,-122.44214,998000,5135,CA,3051 Market St,977000,94114,325647984,null
1,2,San Francisco,-1,FOR_SALE,CONDO,https://photos.zillowstatic.com/fp/3b9d83c8a379111e656cf304e777a197-p_e.jpg,37.757298,{'is_FSBA': True},690,-122.43753,599000,null,CA,4431A 20th St,null,94114,2057602693,null
0,null,San Francisco,-1,FOR_SALE,MULTI_FAMILY,https://photos.zillowstatic.com/fp/e11052e378f24772a371d6c9633c290d-p_e.jpg,null,{'is_FSBA': True},5130,null,2600000,null,CA,1376 Church St,null,94114,2073338469,null
8,9,San Francisco,69,FOR_SALE,SINGLE_FAMILY,https://photos.zillowstatic.com/fp/a69840b44b387d61cc6251ca6e94456f-p_e.jpg,37.751972,{'is_FSBA': True},6390,-122.42885,2800000,null,CA,228 Vicksburg St,null,94114,15147138,null
3,2,San Francisco,71,FOR_SALE,SINGLE_FAMILY,https://photos.zillowstatic.com/fp/de56037b0500c9d330271709eaf975a8-p_e.jpg,37.758625,{'is_FSBA': True},2860,-122.44769,3995000,null,CA,26 Graystone Ter,null,94114,15129638,null
4,6,San Francisco,72,FOR_SALE,MULTI_FAMILY,https://photos.zillowstatic.com/fp/3210e62ed036205ed46c6b3868e04436-p_e.jpg,37.752308,{'is_FSBA': True},4224,-122.42603,3395000,11338,CA,267-269 Chattanooga St,3236100,94114,332860186,null
3,3,San Francisco,-1,FOR_SALE,SINGLE_FAMILY,https://photos.zillowstatic.com/fp/b0fd9ec4758925354505dcec18914dd8-p_e.jpg,37.75933,"{'is_FSBA': True, 'is_openHouse': True}",3713,-122.44309,4300000,null,CA,220 Danvers St,null,94114,15129597,null
null,null,San Francisco,81,FOR_SALE,MULTI_FAMILY,https://photos.zillowstatic.com/fp/51efebe3018efde6a512d2354702cd20-p_e.jpg,37.751377,{'is_FSBA': True},4000,-122.42919,2650000,3204,CA,3881 24th St,2740900,94114,2059552117,null
5,7,San Francisco,-1,FOR_SALE,MULTI_FAMILY,https://photos.zillowstatic.com/fp/812126869bbea8b3323c36fcdb5a160f-p_e.jpg,null,{'is_FSBA': True},2756,null,2999000,9318,CA,93-97 Saturn St,2923300,94114,2062774239,null
null,null,San Francisco,-1,FOR_SALE,MULTI_FAMILY,https://photos.zillowstatic.com/fp/6cac090d22c42843ae55babd6186b058-p_e.jpg,null,{'is_FSBA': True},5050,null,4570000,5141,CA,Sanchez Sanfrancisco,null,94114,2057481554,null
2,3,San Francisco,-1,FOR_SALE,CONDO,https://photos.zillowstatic.com/fp/c61a5387ba152d5317700ef4e476e0d4-p_e.jpg,37.752743,{'is_FSBA': True},1822,-122.43262,1599000,6899,CA,4027 23rd St,1541700,94114,184816925,null
4,2,San Francisco,0,FOR_SALE,CONDO,"https://maps.googleapis.com/maps/api/staticmap?mobile=false&sensor=true&maptype=satellite&size=575x242&zoom=17&center=37.79478073120117,-122.43305969238281&key=AIzaSyBJsNQO5ZeG-XAbqqWLKwG08fWITSxg33w&signature=OhscNqW7G44tOoa0UcZbt7TKubw=",37.79478,{'is_FSBA': True},2579,-122.43306,5500000,14592,CA,2190 Broadway St APT 5W,4431100,94115,15072658,Apt 5W
0,null,San Francisco,1,FOR_SALE,MULTI_FAMILY,https://photos.zillowstatic.com/fp/1b3dcf63d397f19ee3de23ec675609c9-p_e.jpg,37.788887,{'is_FSBA': True},17078,-122.44643,9850000,4800,CA,3245 Clay St,1689400,94115,2068023846,null
2,3,San Francisco,2,FOR_SALE,SINGLE_FAMILY,https://photos.zillowstatic.com/fp/871ea1186bb777a9db83949c078cd9f3-p_e.jpg,37.790985,{'is_FSBA': True},2300,-122.433784,1998000,6614,CA,2472 Clay St,2104500,94115,15074097,null
0,null,San Francisco,4,FOR_SALE,MULTI_FAMILY,https://photos.zillowstatic.com/fp/70d0d8e0ba8556d4afc262ae458e5e14-p_e.jpg,null,{'is_FSBA': True},6927,null,4750000,15925,CA,1945-1955 Lyon St,4949900,94115,2057224285,null
11,6,San Francisco,-1,FOR_SALE,SINGLE_FAMILY,https://photos.zillowstatic.com/fp/dfa417c71a901dcfc929f147399a7b9a-p_e.jpg,37.79063,"{'is_FSBA': True, 'is_openHouse': True}",4590,-122.446846,4995000,null,CA,3145-3147 Jackson St,null,94115,332852055,null
4,4,San Francisco,-1,FOR_SALE,MULTI_FAMILY,https://photos.zillowstatic.com/fp/9c18413f77b55a3124b329d6e34ae318-p_e.jpg,37.789978,{'is_FSBA': True},3880,-122.435074,1699000,null,CA,2550-2554 Sacramento St,null,94115,2056462080,null
5,7,San Francisco,7,FOR_SALE,MULTI_FAMILY,https://photos.zillowstatic.com/fp/b4c654ac3db979d55744d99f0acf5b45-p_e.jpg,37.78855,{'is_FSBA': True},4810,-122.44627,4999999,16252,CA,3236-3238 Sacramento St,5353500,94115,241583609,null
0,null,San Francisco,8,FOR_SALE,LOT,https://photos.zillowstatic.com/fp/48425a1f3ad2a713a7efabf00f131300-p_e.jpg,37.783005,{'is_FSBA': True},0,-122.444115,1750000,null,CA,2478 Geary Blvd,null,94115,15083733,null
1,2,San Francisco,12,FOR_SALE,CONDO,https://photos.zillowstatic.com/fp/67cfe53ff0b07ebcb5eff4bd00821ed1-p_e.jpg,37.776978,{'is_FSBA': True},1270,-122.44295,998000,4744,CA,1873 McAllister St,1071400,94115,111925412,null
2,4,San Francisco,-1,FOR_SALE,CONDO,https://photos.zillowstatic.com/fp/76433755bde2ac63782932e4b3ba0f90-p_e.jpg,37.787838,"{'is_FSBA': True, 'is_openHouse': True}",1900,-122.429306,1698000,7316,CA,1940 Bush St,1837100,94115,15075416,null
3,3,San Francisco,12,FOR_SALE,CONDO,https://photos.zillowstatic.com/fp/a386d2e68317540d028eaabe48d1ec2e-p_e.jpg,37.791374,{'is_FSBA': True},2280,-122.44532,2800000,10793,CA,3042 Jackson St APT 1,2938000,94115,64972277,Apt 1
3,3,San Francisco,-1,FOR_SALE,CONDO,https://photos.zillowstatic.com/fp/fa547986758c9b8f4380b8ef3326a4a4-p_e.jpg,37.78692,{'is_FSBA': True},1550,-122.444984,1875000,null,CA,1726 Lyon St,null,94115,15082694,null
1,2,San Francisco,-1,FOR_SALE,CONDO,https://photos.zillowstatic.com/fp/9dc46a619238dc632270dfe8064887a7-p_e.jpg,37.787357,"{'is_FSBA': True, 'is_openHouse': True}",845,-122.43998,849000,4067,CA,1910 Divisadero St APT 4,930600,94115,2068532383,Apt 4
2,2,San Francisco,18,FOR_SALE,CONDO,https://photos.zillowstatic.com/fp/12f5194d079d44b3b54215769b32a2cf-p_e.jpg,37.78582,{'is_FSBA': True},1233,-122.440765,1395000,5230,CA,2655 Bush St APT 411,1498400,94115,241585992,Apt 411
2,4,San Francisco,-1,FOR_SALE,SINGLE_FAMILY,https://photos.zillowstatic.com/fp/54674d577fac6a6500559a1a50c6484a-p_e.jpg,null,"{'is_FSBA': True, 'is_openHouse': True}",1331,null,1400000,4167,CA,(undisclosed Address),1422900,94115,15083761,null
0,null,San Francisco,20,FOR_SALE,MULTI_FAMILY,https://photos.zillowstatic.com/fp/91675d4d4052a1bc88465a62e68a5ef9-p_e.jpg,37.788956,{'is_FSBA': True},6150,-122.443085,3200000,10805,CA,3042 Sacramento St,3392000,94115,2078219518,null
4,4,San Francisco,22,FOR_SALE,SINGLE_FAMILY,https://photos.zillowstatic.com/fp/2f78b0ae528955fcb9a5ee836190b249-p_e.jpg,37.78932,{'is_FSBA': True},3090,-122.432945,4795000,11871,CA,2338 California St,4665100,94115,15074677,null
2,3,San Francisco,24,FOR_SALE,CONDO,https://photos.zillowstatic.com/fp/398cf96e8c473d0b47a8e5fcd8f61b48-p_e.jpg,37.778507,{'is_FSBA': True},1809,-122.43457,1595000,6706,CA,1374 McAllister St,1598200,94115,96019698,null
2,3,San Francisco,24,FOR_SALE,CONDO,https://photos.zillowstatic.com/fp/18f1bcf86fac601c7644f545d1ecce8d-p_e.jpg,37.7866,{'is_FSBA': True},1211,-122.43787,1448998,5091,CA,2470 Bush St #B,1580800,94115,2056981426,# B
3,2,San Francisco,-1,FOR_SALE,CONDO,https://photos.zillowstatic.com/fp/dfbb1667558549ca7d234b0243bc2d55-p_e.jpg,37.78657,{'is_FSBA': True},1604,-122.434715,1299000,6499,CA,1880 Steiner St APT 405,1272900,94115,15075725,Apt 405
1,2,San Francisco,-1,FOR_SALE,CONDO,https://photos.zillowstatic.com/fp/9f5cb572d4b916269808b89137f66ff5-p_e.jpg,null,{'is_FSBA': True},875,null,685000,4124,CA,1864 A Ellis St #41,768400,94115,2057022611,# 41
1,1,San Francisco,-1,FOR_SALE,CONDO,https://photos.zillowstatic.com/fp/d9d7cf5604fecf83e628876af184511f-p_e.jpg,null,"{'is_FSBA': True, 'is_openHouse': True}",611,null,695000,3196,CA,1516 McAllister St #A,760800,94115,2073354834,# A
1,1,San Francisco,33,FOR_SALE,CONDO,https://photos.zillowstatic.com/fp/0e02d1cdad9a2559246a81087fc79a33-p_e.jpg,37.79232,{'is_FSBA': True},721,-122.43359,950000,3856,CA,2345 Jackson St APT 3,939700,94115,96026545,Apt 3
2,3,San Francisco,39,FOR_SALE,CONDO,https://photos.zillowstatic.com/fp/f243a23331327c34345a76cb671449b7-p_e.jpg,37.7862,{'is_FSBA': True},1596,-122.44149,1595000,6410,CA,2686 Bush St,1560300,94115,64972283,null
2,3,San Francisco,-1,FOR_SALE,CONDO,https://photos.zillowstatic.com/fp/013d1c86050300c611c69e62933b318d-p_e.jpg,37.783405,{'is_FSBA': True},1050,-122.42844,695000,4764,CA,30 Quickstep Ln APT 3,685800,94115,64972226,Apt 3
2,3,San Francisco,-1,FOR_SALE,CONDO,https://photos.zillowstatic.com/fp/da6ffba9826a05856de80e740697d13e-p_e.jpg,37.78424,{'is_FSBA': True},1050,-122.42862,717000,4764,CA,65 Western Shore Ln APT 6,707800,94115,64972055,Apt 6
5,5,San Francisco,50,FOR_SALE,SINGLE_FAMILY,https://photos.zillowstatic.com/fp/bf0f6b56edad5bbc3c6daa0cb638a4c4-p_e.jpg,37.791603,{'is_FSBA': True},5416,-122.432144,9995000,null,CA,2367 Washington St,null,94115,2103171106,null
1,1,San Francisco,54,FOR_SALE,CONDO,https://photos.zillowstatic.com/fp/4bccad0309048f95d6c8962a08d6a7ec-p_e.jpg,37.793682,{'is_FSBA': True},0,-122.43425,898000,3900,CA,2364 Pacific Ave APT 8,942800,94115,2088943470,Apt 8
1,0,San Francisco,61,FOR_SALE,CONDO,https://photos.zillowstatic.com/fp/edb468b90edf3929873f67c61dd184cf-p_e.jpg,37.788517,{'is_FSBA': True},395,-122.43145,485000,2544,CA,2162 Pine St APT 203,514800,94115,2119393117,Apt 203
5,6,San Francisco,-1,FOR_SALE,SINGLE_FAMILY,https://photos.zillowstatic.com/fp/c09a939769be8881ff8e78f6751b03bd-p_e.jpg,37.790924,{'is_FSBA': True},5550,-122.44486,6895000,null,CA,3007 Jackson St,null,94115,332852050,null
2,2,San Francisco,-1,FOR_SALE,CONDO,https://photos.zillowstatic.com/fp/3e478877935a01a3180eae6f42e78987-p_e.jpg,37.78165,{'is_FSBA': True},1407,-122.4322,1195000,null,CA,1310 Fillmore St APT 603,null,94115,82785385,Apt 603
1,1,San Francisco,-1,FOR_SALE,CONDO,https://photos.zillowstatic.com/fp/2a7fa2a07f6915bb900912b1100f0916-p_e.jpg,37.786488,{'is_FSBA': True},829,-122.4331,870000,3857,CA,1980 Sutter St APT 203,846600,94115,15075584,Apt 203
2,2,San Francisco,81,FOR_SALE,CONDO,https://photos.zillowstatic.com/fp/1155d1955262f31976601bee65c22cdc-p_e.jpg,37.79273,{'is_FSBA': True},1680,-122.431496,1995000,null,CA,2461 Buchanan St,null,94115,119685035,null
2,2,San Francisco,-1,FOR_SALE,CONDO,https://photos.zillowstatic.com/fp/99475b488400ca2db3a21e7f65bda0ae-p_e.jpg,37.78525,{'is_FSBA': True},674,-122.43683,699000,3795,CA,1629 Pierce St,769100,94115,303806424,null
0,4,San Francisco,-1,FOR_SALE,MULTI_FAMILY,https://photos.zillowstatic.com/fp/6bbc606258f90f90e605db51a48789a0-p_e.jpg,37.7879,{'is_FSBA': True},2200,-122.43221,1500000,4764,CA,2205 Pine St,1444200,94115,241583463,null
0,null,San Francisco,-1,FOR_SALE,MULTI_FAMILY,https://photos.zillowstatic.com/fp/ccd09651b4a1fac4dd8e7d581d3310b0-p_e.jpg,37.78791,{'is_FSBA': True},9179,-122.43212,2500000,2700,CA,2201 Pine St,2763000,94115,2057942301,null
7,5,San Francisco,-1,FOR_SALE,SINGLE_FAMILY,https://photos.zillowstatic.com/fp/21e8e862d18819ca2fd3e884f5f77d8d-p_e.jpg,37.78992,{'is_FSBA': True},4571,-122.445366,8280000,24723,CA,3169 Washington St,7600400,94115,15081870,null
2,2,San Francisco,-1,FOR_SALE,CONDO,https://photos.zillowstatic.com/fp/b6e60efbe814a62f4ce9b5a81fc396ab-p_e.jpg,37.782413,{'is_FSBA': True},1011,-122.43786,899000,4149,CA,1365 Scott St APT 1,860200,94115,15083946,Apt 1
2,2,San Francisco,-1,FOR_SALE,CONDO,https://photos.zillowstatic.com/fp/981626acb003e5dbcec98376359183e1-p_e.jpg,37.78638,{'is_FSBA': True},1400,-122.42906,1475000,5940,CA,1749 Sutter St,1414100,94115,15076146,null
7,5,San Francisco,115,FOR_SALE,CONDO,https://photos.zillowstatic.com/fp/cd6070beaf15c394df7a109f27ae8019-p_e.jpg,37.793404,{'is_FSBA': True},5205,-122.431786,8600000,null,CA,2205 Pacific Ave,null,94115,15073456,null
8,8,San Francisco,-1,FOR_SALE,SINGLE_FAMILY,https://photos.zillowstatic.com/fp/4ec2398d2024c2c8ba1687edb7d38120-p_e.jpg,37.793003,{'is_FSBA': True},10734,-122.43948,19950000,63652,CA,2698 Pacific Ave,17788600,94115,15073354,null
2,3,San Francisco,1,FOR_SALE,SINGLE_FAMILY,https://photos.zillowstatic.com/fp/97021dcc1582afe2c37063675ec84efa-p_e.jpg,37.751343,{'is_FSBA': True},1961,-122.469284,1680000,null,CA,1970 Funston Ave,null,94116,15115079,null
1,3,San Francisco,1,FOR_SALE,SINGLE_FAMILY,https://photos.zillowstatic.com/fp/69585dbdff657e506aeec16b153491f2-p_e.jpg,37.749363,{'is_FSBA': True},1130,-122.50708,799000,3908,CA,1990 48th Ave,959000,94116,15113759,null
3,4,San Francisco,1,FOR_SALE,SINGLE_FAMILY,https://photos.zillowstatic.com/fp/1aa3b9919c9f26ca9f9bd9730d7225b5-p_e.jpg,37.74204,{'is_FSBA': True},1975,-122.48282,1945000,5995,CA,2434 26th Ave,2255100,94116,15122459,null
1,2,San Francisco,-1,FOR_SALE,SINGLE_FAMILY,https://photos.zillowstatic.com/fp/f5616b39c614d387d3e4e698fd7d819a-p_e.jpg,37.7457,"{'is_FSBA': True, 'is_openHouse': True}",905,-122.49712,988000,null,CA,2200 39th Ave,null,94116,15118930,null
1,2,San Francisco,-1,FOR_SALE,SINGLE_FAMILY,https://photos.zillowstatic.com/fp/19a9028ad9d750f9d0e12f6fcc8c40fd-p_e.jpg,37.74651,"{'is_FSBA': True, 'is_openHouse': True}",0,-122.50247,995000,null,CA,2150 44th Ave,null,94116,15117014,null
4,4,San Francisco,-1,FOR_SALE,SINGLE_FAMILY,https://photos.zillowstatic.com/fp/04322401c9387c3c5d9dd92541cf4257-p_e.jpg,37.745293,"{'is_FSBA': True, 'is_openHouse': True}",2385,-122.48304,2295000,4128,CA,2262 26th Ave,2640400,94116,15119526,null
3,4,San Francisco,5,FOR_SALE,SINGLE_FAMILY,https://photos.zillowstatic.com/fp/c059d39ce17ce30c3ebe235fc67d0853-p_e.jpg,37.740856,{'is_FSBA': True},2423,-122.48861,1988888,3798,CA,2495 31st Ave,2153000,94116,15122181,null
3,5,San Francisco,9,FOR_SALE,SINGLE_FAMILY,https://photos.zillowstatic.com/fp/966a8ebbef9de9e2ad68994253c27b32-p_e.jpg,37.734154,{'is_FSBA': True},1600,-122.49552,1388000,5713,CA,2000 Sloat Blvd,1613900,94116,15126302,null
3,4,San Francisco,-1,FOR_SALE,SINGLE_FAMILY,https://photos.zillowstatic.com/fp/78be9942556777603ae942dbbfed8ffe-p_e.jpg,37.744312,"{'is_FSBA': True, 'is_openHouse': True}",1960,-122.48389,1295000,5937,CA,1531 Santiago St,1517000,94116,15120569,null
2,4,San Francisco,11,FOR_SALE,MULTI_FAMILY,https://photos.zillowstatic.com/fp/481a25cee7370ef7b140740c50a7365e-p_e.jpg,37.74343,{'is_FSBA': True},0,-122.471535,1388000,5995,CA,500-502 Taraval St,1579000,94116,332857915,null
2,4,San Francisco,11,FOR_SALE,SINGLE_FAMILY,https://photos.zillowstatic.com/fp/6eb823bd35ba29646f1c9f6570c9f254-p_e.jpg,37.737988,{'is_FSBA': True},1999,-122.48814,1295000,null,CA,2654 31st Ave,null,94116,15125081,null
4,3,San Francisco,12,FOR_SALE,SINGLE_FAMILY,https://photos.zillowstatic.com/fp/428ffca2fce4ea1aa8486937d0eb899d-p_e.jpg,37.745186,{'is_FSBA': True},0,-122.472664,1899000,6442,CA,2298 16th Ave,2117500,94116,15119908,null
0,0,San Francisco,12,FOR_SALE,CONDO,https://photos.zillowstatic.com/fp/b35d1398c6f4baa728b2e54e1a730a8b-p_e.jpg,37.742706,{'is_FSBA': True},2900,-122.489105,1788888,2700,CA,2124-2126 Taraval St,1582000,94116,2076490232,null
3,5,San Francisco,-1,FOR_SALE,SINGLE_FAMILY,https://photos.zillowstatic.com/fp/b4d253887988127485615f3c529b3f3c-p_e.jpg,37.748344,{'is_FSBA': True},1312,-122.49082,1790000,4433,CA,2082 33rd Ave,2000500,94116,15116187,null
2,3,San Francisco,-1,FOR_SALE,SINGLE_FAMILY,https://photos.zillowstatic.com/fp/9c4b3f63caefd8398072a6a897839974-p_e.jpg,37.73843,"{'is_FSBA': True, 'is_openHouse': True}",1410,-122.49229,1200000,3991,CA,2600 35th Ave,1339400,94116,15124998,null
3,5,San Francisco,-1,FOR_SALE,SINGLE_FAMILY,https://photos.zillowstatic.com/fp/0369bb78a737ee221dc4737dd4bac439-p_e.jpg,37.736732,"{'is_FSBA': True, 'is_openHouse': True}",2124,-122.49732,1949000,null,CA,2828 Wawona St,null,94116,15124790,null
2,3,San Francisco,29,FOR_SALE,SINGLE_FAMILY,https://photos.zillowstatic.com/fp/1f817662c818eed22bd88c801d0c72ef-p_e.jpg,37.750263,{'is_FSBA': True},1214,-122.48667,1330000,4362,CA,1990 29th Ave,1410400,94116,15114527,null
2,4,San Francisco,32,FOR_SALE,SINGLE_FAMILY,https://photos.zillowstatic.com/fp/55e5ffa19e0e7a9706d67b88ce6f8b96-p_e.jpg,37.74046,{'is_FSBA': True},2532,-122.47476,2500000,8169,CA,2539 18th Ave,2531500,94116,15123165,null
3,4,San Francisco,-1,FOR_SALE,SINGLE_FAMILY,https://photos.zillowstatic.com/fp/3c4e7b38edb832aa5a1aacf1ef68c0df-p_e.jpg,37.745872,"{'is_FSBA': True, 'is_openHouse': True}",1824,-122.49978,1299000,5965,CA,3100 Rivera St,null,94116,15117104,null
1,3,San Francisco,-1,FOR_SALE,SINGLE_FAMILY,https://photos.zillowstatic.com/fp/def83a11c95e99b3c7dd2ad12c6b3fe2-p_e.jpg,37.74449,{'is_FSBA': True},1185,-122.47542,1088000,4139,CA,2318 19th Ave,1100500,94116,15120342,null
